序号,TimeStamp,Location_X,Location_Y,Location_Z,Pitch,Yaw,Roll,VehicleOffset,RoadCurvature,RoadSlope,ShaftAcceleration_X,ShaftAcceleration_Y,ShaftAcceleration_Z,ShaftSpeed_X,ShaftSpeed_Y,ShaftSpeed_Z,AngularVelocity_X,AngularVelocity_Y,AngularVelocity_Z,AngularAcceleration_X,AngularAcceleration_Y,AngularAcceleration_Z,Revolution,SpeedMeter,Gear,Mileage,Steering,Throttle,Brake,Parking
1,14:15:00:000,-0.0002,-0.0058,-0.0033,0.00000,0.00000,0.00000,0.0000,0.000000,0.000000,-0.0109,-0.0029,-0.0347,0.0000,0.000000,0.000000,0.000000,0.000000,-0.000017,0.000000,0.000000,-0.000681,781.2,-0.00,1,23456.7000,-0.0018,0.0000,0.0000,0.0000
2,14:15:00:025,0.0063,0.0002,-0.0023,0.00000,-0.00000,0.00000,-0.0097,0.000000,0.000000,-0.0161,0.0088,0.0402,0.0000,0.000000,0.000000,0.000000,0.000000,-0.000034,0.000000,0.000000,-0.001019,820.8,0.16,1,23456.7000,0.0029,0.0000,0.0000,0.0000
3,14:15:00:050,0.0009,0.0005,0.0010,0.00000,-0.00000,0.00000,-0.0164,0.000000,0.000000,-0.0094,0.0036,0.0118,0.0000,0.000000,0.000000,0.000000,0.000000,-0.000068,0.000000,0.000000,-0.001353,771.4,-0.02,1,23456.7000,0.0022,0.0000,0.0000,0.0000
4,14:15:00:075,0.0007,0.0033,-0.0010,0.00000,-0.00000,0.00000,-0.0291,0.000000,0.000000,0.0106,-0.0034,-0.0419,0.0000,0.000000,0.000000,0.000000,0.000000,-0.000102,0.000000,0.000000,-0.001344,767.6,0.03,1,23456.7000,-0.0036,0.0000,0.0000,0.0000
5,14:15:00:100,0.0010,0.0015,-0.0049,0.00000,-0.00001,0.00000,-0.0347,0.000000,0.000000,0.0119,0.0071,-0.0083,0.0000,0.000000,0.000000,0.000000,0.000000,-0.000135,0.000000,0.000000,-0.001336,794.4,0.07,1,23456.7000,-0.0044,0.0000,0.0000,0.0000
6,14:15:00:125,-0.0042,0.0007,0.0037,0.00000,-0.00001,0.00000,-0.0382,0.000000,0.000000,-0.0135,-0.0012,0.0572,0.0000,0.000000,0.000000,0.000000,0.000000,-0.000169,0.000000,0.000000,-0.001327,854.4,0.21,1,23456.7000,-0.0003,0.0000,0.0000,0.0000
7,14:15:00:150,-0.0018,-0.0006,-0.0023,0.00000,-0.00002,0.00000,-0.0476,0.000000,0.000000,-0.0127,-0.0060,-0.0587,0.0000,0.000000,0.000000,0.000000,0.000000,-0.000202,0.000000,0.000000,-0.001319,803.4,0.28,1,23456.7000,-0.0035,0.0000,0.0000,0.0000
8,14:15:00:175,0.0020,0.0004,0.0012,0.00000,-0.00002,0.00000,-0.0605,0.000000,0.000000,0.0087,-0.0107,-0.0132,0.0000,0.000000,0.000000,0.000000,0.000000,-0.000234,0.000000,0.000000,-0.001310,819.3,-0.14,1,23456.7000,-0.0007,0.0000,0.0000,0.0000
9,14:15:00:200,-0.0038,-0.0039,0.0015,0.00000,-0.00003,0.00000,-0.0478,0.000000,0.000000,0.0055,0.0037,0.0478,0.0000,0.000000,0.000000,0.000000,0.000000,-0.000267,0.000000,0.000000,-0.001301,802.6,0.25,1,23456.7000,-0.0043,0.0000,0.0000,0.0000
10,14:15:00:225,-0.0035,-0.0055,-0.0012,0.00000,-0.00003,0.00000,-0.0453,0.000000,0.000000,0.0058,0.0232,-0.0329,0.0000,0.000000,0.000000,0.000000,0.000000,-0.000300,0.000000,0.000000,-0.001293,783.3,-0.06,1,23456.7000,0.0021,0.0000,0.0000,0.0000
11,14:15:00:250,0.0003,-0.0012,-0.0013,0.00000,-0.00004,0.00000,-0.0353,0.000000,0.000000,-0.0058,0.0080,-0.0228,0.0000,0.000000,0.000000,0.000000,0.000000,-0.000332,0.000000,0.000000,-0.001284,816.7,0.15,1,23456.7000,-0.0071,0.0000,0.0000,0.0000
12,14:15:00:275,-0.0013,-0.0043,-0.0004,0.00000,-0.00005,0.00000,-0.0308,0.000000,0.000000,0.0083,-0.0052,-0.0075,0.0000,0.000000,0.000000,0.000000,0.000000,-0.000364,0.000000,0.000000,-0.001276,776.8,-0.12,1,23456.7000,-0.0011,0.0000,0.0000,0.0000
13,14:15:00:300,0.0003,-0.0010,-0.0007,0.00000,-0.00006,0.00000,-0.0312,0.000000,0.000000,0.0188,-0.0082,0.0543,0.0000,0.000000,0.000000,0.000000,0.000000,-0.000396,0.000000,0.000000,-0.001267,810.3,-0.24,1,23456.7000,0.0015,0.0000,0.0000,0.0000
14,14:15:00:325,0.0013,0.0037,-0.0048,0.00000,-0.00007,0.00000,-0.0267,0.000000,0.000000,0.0043,-0.0130,-0.0189,0.0000,0.000000,0.000000,0.000000,0.000000,-0.000427,0.000000,0.000000,-0.001259,757.4,0.21,1,23456.7000,0.0015,0.0000,0.0000,0.0000
15,14:15:00:350,0.0019,-0.0010,-0.0007,0.00000,-0.00008,0.00000,-0.0236,0.000000,0.000000,-0.0036,0.0133,-0.0051,0.0000,0.000000,0.000000,0.000000,0.000000,-0.000458,0.000000,0.000000,-0.001250,777.4,0.38,1,23456.7000,0.0121,0.0000,0.0000,0.0000
16,14:15:00:375,-0.0042,0.0033,0.0034,0.00000,-0.00009,0.00000,-0.0117,0.000000,0.000000,0.0091,0.0048,-0.0187,0.0000,0.000000,0.000000,0.000000,0.000000,-0.000490,0.000000,0.000000,-0.001241,832.8,-0.05,1,23456.7000,-0.0011,0.0000,0.0000,0.0000
17,14:15:00:400,0.0018,-0.0017,0.0028,0.00000,-0.00011,0.00000,-0.0082,0.000000,0.000000,-0.0013,-0.0189,0.0738,0.0000,0.000000,0.000000,0.000000,0.000000,-0.000521,0.000000,0.000000,-0.001233,832.7,0.26,1,23456.7000,0.0007,0.0000,0.0000,0.0000
18,14:15:00:425,-0.0019,-0.0040,-0.0013,0.00000,-0.00012,0.00000,-0.0124,0.000000,0.000000,0.0073,-0.0091,0.0630,0.0000,0.000000,0.000000,0.000000,0.000000,-0.000551,0.000000,0.000000,-0.001224,781.5,-0.09,1,23456.7000,-0.0005,0.0000,0.0000,0.0000
19,14:15:00:450,-0.0024,0.0031,0.0008,0.00000,-0.00013,0.00000,-0.0209,0.000000,0.000000,0.0084,0.0088,0.0188,0.0000,0.000000,0.000000,0.000000,0.000000,-0.000582,0.000000,0.000000,-0.001216,814.7,0.08,1,23456.7000,0.0095,0.0000,0.0000,0.0000
20,14:15:00:475,-0.0013,-0.0033,0.0025,0.00000,-0.00015,0.00000,-0.0197,0.000000,0.000000,-0.0042,-0.0131,0.0015,0.0000,0.000000,0.000000,0.000000,0.000000,-0.000612,0.000000,0.000000,-0.001207,819.4,0.02,1,23456.7000,0.0050,0.0000,0.0000,0.0000
21,14:15:00:500,-0.0022,-0.0002,0.0009,0.00000,-0.00016,0.00000,-0.0047,0.000000,0.000000,-0.0054,-0.0115,0.0316,0.0000,0.000000,0.000000,0.000000,0.000000,-0.000642,0.000000,0.000000,-0.001199,811.2,-0.02,1,23456.7000,0.0097,0.0000,0.0000,0.0000
22,14:15:00:525,0.0032,0.0020,-0.0019,0.00000,-0.00018,0.00000,-0.0153,0.000000,0.000000,0.0010,0.0074,0.0467,0.0000,0.000000,0.000000,0.000000,0.000000,-0.000672,0.000000,0.000000,-0.001190,798.7,-0.02,1,23456.7000,-0.0029,0.0000,0.0000,0.0000
23,14:15:00:550,-0.0064,0.0004,-0.0012,0.00000,-0.00020,0.00000,-0.0268,0.000000,0.000000,-0.0042,-0.0042,-0.0275,0.0000,0.000000,0.000000,0.000000,0.000000,-0.000702,0.000000,0.000000,-0.001182,761.2,-0.21,1,23456.7000,0.0008,0.0000,0.0000,0.0000
24,14:15:00:575,0.0044,-0.0014,0.0025,0.00000,-0.00022,0.00000,-0.0337,0.000000,0.000000,0.0112,0.0206,0.0274,0.0000,0.000000,0.000000,0.000000,0.000000,-0.000731,0.000000,0.000000,-0.001173,833.1,0.26,1,23456.7000,0.0003,0.0000,0.0000,0.0000
25,14:15:00:600,0.0009,0.0055,-0.0027,0.00000,-0.00023,0.00000,-0.0292,0.000000,0.000000,-0.0014,0.0175,-0.0408,0.0000,0.000000,0.000000,0.000000,0.000000,-0.000760,0.000000,0.000000,-0.001164,786.5,-0.13,1,23456.7000,-0.0058,0.0000,0.0000,0.0000
26,14:15:00:625,-0.0033,-0.0013,0.0018,0.00000,-0.00025,0.00000,-0.0238,0.000000,0.000000,0.0085,-0.0068,-0.0136,0.0000,0.000000,0.000000,0.000000,0.000000,-0.000789,0.000000,0.000000,-0.001156,819.0,0.27,1,23456.7000,0.0017,0.0000,0.0000,0.0000
27,14:15:00:650,0.0009,0.0009,0.0032,0.00000,-0.00027,0.00000,-0.0224,0.000000,0.000000,-0.0097,-0.0044,0.0171,0.0000,0.000000,0.000000,0.000000,0.000000,-0.000818,0.000000,0.000000,-0.001147,821.5,-0.11,1,23456.7000,-0.0049,0.0000,0.0000,0.0000
28,14:15:00:675,0.0099,0.0006,-0.0018,0.00000,-0.00029,0.00000,-0.0162,0.000000,0.000000,-0.0187,-0.0055,-0.0495,0.0000,0.000000,0.000000,0.000000,0.000000,-0.000847,0.000000,0.000000,-0.001139,793.2,-0.10,1,23456.7000,0.0053,0.0000,0.0000,0.0000
29,14:15:00:700,0.0034,-0.0014,-0.0005,0.00000,-0.00032,0.00000,-0.0097,0.000000,0.000000,0.0173,0.0044,-0.0043,0.0000,0.000000,0.000000,0.000000,0.000000,-0.000875,0.000000,0.000000,-0.001130,806.1,0.15,1,23456.7000,-0.0010,0.0000,0.0000,0.0000
30,14:15:00:725,-0.0037,0.0030,0.0015,0.00000,-0.00034,0.00000,-0.0033,0.000000,0.000000,0.0083,0.0083,-0.0346,0.0000,0.000000,0.000000,0.000000,0.000000,-0.000903,0.000000,0.000000,-0.001122,803.4,0.22,1,23456.7000,-0.0076,0.0000,0.0000,0.0000
31,14:15:00:750,0.0041,0.0009,-0.0014,0.00000,-0.00036,0.00000,-0.0041,0.000000,0.000000,-0.0051,-0.0085,-0.0044,0.0000,0.000000,0.000000,0.000000,0.000000,-0.000931,0.000000,0.000000,-0.001113,781.9,0.29,1,23456.7000,-0.0028,0.0000,0.0000,0.0000
32,14:15:00:775,0.0034,0.0024,-0.0008,0.00000,-0.00038,0.00000,0.0051,0.000000,0.000000,0.0016,-0.0055,-0.0800,0.0000,0.000000,0.000000,0.000000,0.000000,-0.000959,0.000000,0.000000,-0.001104,799.1,-0.28,1,23456.7000,0.0002,0.0000,0.0000,0.0000
33,14:15:00:800,0.0020,-0.0001,-0.0006,0.00000,-0.00041,0.00000,0.0107,0.000000,0.000000,0.0007,-0.0045,-0.0606,0.0000,0.000000,0.000000,0.000000,0.000000,-0.000986,0.000000,0.000000,-0.001096,807.9,-0.14,1,23456.7000,0.0087,0.0000,0.0000,0.0000
34,14:15:00:825,-0.0028,0.0008,0.0027,0.00000,-0.00043,0.00000,0.0238,0.000000,0.000000,-0.0048,0.0051,-0.0100,0.0000,0.000000,0.000000,0.000000,0.000000,-0.001014,0.000000,0.000000,-0.001087,829.0,0.33,1,23456.7000,0.0043,0.0000,0.0000,0.0000
35,14:15:00:850,-0.0046,-0.0045,-0.0038,0.00000,-0.00046,0.00000,-0.0006,0.000000,0.000000,0.0016,-0.0089,0.0315,0.0000,0.000000,0.000000,0.000000,0.000000,-0.001041,0.000000,0.000000,-0.001079,830.6,-0.19,1,23456.7000,0.0005,0.0000,0.0000,0.0000
36,14:15:00:875,0.0041,-0.0010,-0.0012,0.00000,-0.00049,0.00000,0.0001,0.000000,0.000000,-0.0129,-0.0087,-0.0161,0.0000,0.000000,0.000000,0.000000,0.000000,-0.001068,0.000000,0.000000,-0.001070,777.2,0.05,1,23456.7000,0.0044,0.0000,0.0000,0.0000
37,14:15:00:900,-0.0001,-0.0041,-0.0026,0.00000,-0.00051,0.00000,-0.0051,0.000000,0.000000,0.0004,0.0008,-0.0072,0.0000,0.000000,0.000000,0.000000,0.000000,-0.001094,0.000000,0.000000,-0.001062,820.7,-0.11,1,23456.7000,0.0009,0.0000,0.0000,0.0000
38,14:15:00:925,-0.0016,-0.0005,0.0024,0.00000,-0.00054,0.00000,-0.0146,0.000000,0.000000,0.0046,-0.0033,0.0337,0.0000,0.000000,0.000000,0.000000,0.000000,-0.001121,0.000000,0.000000,-0.001053,758.7,-0.12,1,23456.7000,-0.0044,0.0000,0.0000,0.0000
39,14:15:00:950,-0.0024,0.0000,0.0007,0.00000,-0.00057,0.00000,-0.0201,0.000000,0.000000,0.0048,-0.0066,-0.0262,0.0000,0.000000,0.000000,0.000000,0.000000,-0.001147,0.000000,0.000000,-0.001045,794.7,-0.50,1,23456.7000,0.0021,0.0000,0.0000,0.0000
40,14:15:00:975,0.0001,-0.0008,-0.0007,0.00000,-0.00060,0.00000,-0.0188,0.000000,0.000000,0.0058,-0.0082,0.0064,0.0000,0.000000,0.000000,0.000000,0.000000,-0.001173,0.000000,0.000000,-0.001036,776.2,0.17,1,23456.7000,0.0043,0.0000,0.0000,0.0000
41,14:15:01:000,0.0053,-0.0021,0.0029,0.00000,-0.00063,0.00000,-0.0194,0.000000,0.000000,0.0071,0.0075,-0.0345,0.0000,0.000000,0.000000,0.000000,0.000000,-0.001199,0.000000,0.000000,-0.001027,818.9,-0.29,1,23456.7000,0.0153,0.0000,0.0000,0.0000
42,14:15:01:025,-0.0017,0.0018,0.0019,0.00000,-0.00066,0.00000,-0.0345,0.000000,0.000000,-0.0105,0.0017,-0.0491,0.0000,0.000000,0.000000,0.000000,0.000000,-0.001224,0.000000,0.000000,-0.001019,809.7,0.01,1,23456.7000,0.0015,0.0000,0.0000,0.0000
43,14:15:01:050,0.0029,-0.0002,-0.0005,0.00000,-0.00069,0.00000,-0.0390,0.000000,0.000000,-0.0116,-0.0028,-0.0129,0.0000,0.000000,0.000000,0.000000,0.000000,-0.001250,0.000000,0.000000,-0.001010,767.9,-0.22,1,23456.7000,-0.0024,0.0000,0.0000,0.0000
44,14:15:01:075,-0.0055,0.0008,-0.0015,0.00000,-0.00072,0.00000,-0.0373,0.000000,0.000000,-0.0073,-0.0015,0.0066,0.0000,0.000000,0.000000,0.000000,0.000000,-0.001275,0.000000,0.000000,-0.001002,784.0,0.11,1,23456.7000,0.0047,0.0000,0.0000,0.0000
45,14:15:01:100,-0.0023,-0.0000,-0.0054,0.00000,-0.00075,0.00000,-0.0313,0.000000,0.000000,0.0070,-0.0066,0.0032,0.0000,0.000000,0.000000,0.000000,0.000000,-0.001300,0.000000,0.000000,-0.000993,803.3,0.02,1,23456.7000,0.0034,0.0000,0.0000,0.0000
46,14:15:01:125,0.0020,0.0017,-0.0043,0.00000,-0.00079,0.00000,-0.0270,0.000000,0.000000,0.0096,0.0133,0.0018,0.0000,0.000000,0.000000,0.000000,0.000000,-0.001324,0.000000,0.000000,-0.000985,798.1,-0.38,1,23456.7000,0.0079,0.0000,0.0000,0.0000
47,14:15:01:150,0.0025,0.0011,-0.0005,0.00000,-0.00082,0.00000,-0.0242,0.000000,0.000000,0.0015,0.0214,0.0785,0.0000,0.000000,0.000000,0.000000,0.000000,-0.001349,0.000000,0.000000,-0.000976,793.2,-0.19,1,23456.7000,0.0038,0.0000,0.0000,0.0000
48,14:15:01:175,0.0029,0.0037,-0.0025,0.00000,-0.00085,0.00000,-0.0193,0.000000,0.000000,-0.0001,-0.0063,0.0072,0.0000,0.000000,0.000000,0.000000,0.000000,-0.001373,0.000000,0.000000,-0.000967,794.4,-0.22,1,23456.7000,-0.0085,0.0000,0.0000,0.0000
49,14:15:01:200,-0.0017,-0.0008,0.0019,0.00000,-0.00089,0.00000,-0.0190,0.000000,0.000000,-0.0119,-0.0019,0.0394,0.0000,0.000000,0.000000,0.000000,0.000000,-0.001397,0.000000,0.000000,-0.000959,768.6,0.04,1,23456.7000,-0.0003,0.0000,0.0000,0.0000
50,14:15:01:225,-0.0031,-0.0011,0.0015,0.00000,-0.00092,0.00000,-0.0082,0.000000,0.000000,0.0063,0.0162,0.0668,0.0000,0.000000,0.000000,0.000000,0.000000,-0.001421,0.000000,0.000000,-0.000950,828.7,-0.27,1,23456.7000,0.0064,0.0000,0.0000,0.0000
51,14:15:01:250,-0.0052,0.0044,0.0014,0.00000,-0.00096,0.00000,-0.0060,0.000000,0.000000,0.0100,-0.0012,-0.0423,0.0000,0.000000,0.000000,0.000000,0.000000,-0.001445,0.000000,0.000000,-0.000942,822.1,0.00,1,23456.7000,0.0085,0.0000,0.0000,0.0000
52,14:15:01:275,-0.0001,-0.0019,0.0004,0.00000,-0.00100,0.00000,-0.0096,0.000000,0.000000,0.0007,-0.0083,-0.0416,0.0000,0.000000,0.000000,0.000000,0.000000,-0.001468,0.000000,0.000000,-0.000933,815.6,0.10,1,23456.7000,-0.0042,0.0000,0.0000,0.0000
53,14:15:01:300,-0.0013,-0.0027,0.0007,0.00000,-0.00103,0.00000,0.0017,0.000000,0.000000,-0.0011,0.0246,0.0501,0.0000,0.000000,0.000000,0.000000,0.000000,-0.001491,0.000000,0.000000,-0.000925,799.9,-0.03,1,23456.7000,-0.0011,0.0000,0.0000,0.0000
54,14:15:01:325,0.0011,0.0044,-0.0018,0.00000,-0.00107,0.00000,-0.0024,0.000000,0.000000,0.0103,0.0146,-0.0229,0.0000,0.000000,0.000000,0.000000,0.000000,-0.001514,0.000000,0.000000,-0.000916,806.6,0.16,1,23456.7000,0.0033,0.0000,0.0000,0.0000
55,14:15:01:350,0.0016,-0.0012,-0.0008,0.00000,-0.00111,0.00000,0.0027,0.000000,0.000000,0.0129,-0.0075,-0.0050,0.0000,0.000000,0.000000,0.000000,0.000000,-0.001537,0.000000,0.000000,-0.000908,828.0,-0.42,1,23456.7000,-0.0020,0.0000,0.0000,0.0000
56,14:15:01:375,-0.0042,0.0044,0.0004,0.00000,-0.00115,0.00000,0.0025,0.000000,0.000000,-0.0081,-0.0085,0.0460,0.0000,0.000000,0.000000,0.000000,0.000000,-0.001560,0.000000,0.000000,-0.000899,788.9,-0.20,1,23456.7000,-0.0013,0.0000,0.0000,0.0000
57,14:15:01:400,-0.0013,-0.0012,0.0010,0.00000,-0.00119,0.00000,-0.0042,0.000000,0.000000,-0.0130,0.0157,0.0285,0.0000,0.000000,0.000000,0.000000,0.000000,-0.001582,0.000000,0.000000,-0.000890,797.1,0.15,1,23456.7000,0.0046,0.0000,0.0000,0.0000
58,14:15:01:425,0.0036,0.0004,-0.0038,0.00000,-0.00123,0.00000,-0.0157,0.000000,0.000000,0.0089,-0.0033,0.0483,0.0000,0.000000,0.000000,0.000000,0.000000,-0.001604,0.000000,0.000000,-0.000882,760.2,0.29,1,23456.7000,0.0051,0.0000,0.0000,0.0000
59,14:15:01:450,0.0021,-0.0015,0.0002,0.00000,-0.00127,0.00000,-0.0112,0.000000,0.000000,-0.0003,0.0104,0.0387,0.0000,0.000000,0.000000,0.000000,0.000000,-0.001626,0.000000,0.000000,-0.000873,803.1,-0.22,1,23456.7000,0.0057,0.0000,0.0000,0.0000
60,14:15:01:475,0.0018,0.0081,-0.0005,0.00000,-0.00131,0.00000,-0.0157,0.000000,0.000000,0.0001,0.0025,0.0450,0.0000,0.000000,0.000000,0.000000,0.000000,-0.001648,0.000000,0.000000,-0.000865,800.8,0.39,1,23456.7000,0.0025,0.0000,0.0000,0.0000
61,14:15:01:500,0.0035,0.0031,-0.0024,0.00000,-0.00135,0.00000,-0.0158,0.000000,0.000000,0.0075,-0.0004,-0.0239,0.0000,0.000000,0.000000,0.000000,0.000000,-0.001669,0.000000,0.000000,-0.000856,790.2,0.28,1,23456.7000,-0.0050,0.0000,0.0000,0.0000
62,14:15:01:525,0.0016,-0.0005,-0.0024,0.00000,-0.00139,0.00000,-0.0131,0.000000,0.000000,0.0011,-0.0143,0.0180,0.0000,0.000000,0.000000,0.000000,0.000000,-0.001691,0.000000,0.000000,-0.000848,811.2,0.19,1,23456.7000,-0.0007,0.0000,0.0000,0.0000
63,14:15:01:550,-0.0039,0.0022,0.0009,0.00000,-0.00143,0.00000,-0.0124,0.000000,0.000000,-0.0194,0.0071,0.0085,0.0000,0.000000,0.000000,0.000000,0.000000,-0.001712,0.000000,0.000000,-0.000839,806.6,0.15,1,23456.7000,-0.0049,0.0000,0.0000,0.0000
64,14:15:01:575,0.0043,-0.0016,0.0002,0.00000,-0.00148,0.00000,-0.0276,0.000000,0.000000,0.0048,0.0159,-0.0401,0.0000,0.000000,0.000000,0.000000,0.000000,-0.001733,0.000000,0.000000,-0.000830,826.7,-0.08,1,23456.7000,-0.0025,0.0000,0.0000,0.0000
65,14:15:01:600,0.0036,0.0002,0.0018,0.00000,-0.00152,0.00000,-0.0255,0.000000,0.000000,0.0038,0.0145,0.0449,0.0000,0.000000,0.000000,0.000000,0.000000,-0.001753,0.000000,0.000000,-0.000822,779.2,-0.10,1,23456.7000,0.0029,0.0000,0.0000,0.0000
66,14:15:01:625,-0.0019,-0.0020,-0.0020,0.00000,-0.00156,0.00000,-0.0236,0.000000,0.000000,-0.0050,-0.0128,0.0205,0.0000,0.000000,0.000000,0.000000,0.000000,-0.001774,0.000000,0.000000,-0.000813,788.8,0.35,1,23456.7000,0.0008,0.0000,0.0000,0.0000
67,14:15:01:650,-0.0048,0.0019,-0.0011,0.00000,-0.00161,0.00000,-0.0246,0.000000,0.000000,0.0014,0.0148,0.0068,0.0000,0.000000,0.000000,0.000000,0.000000,-0.001794,0.000000,0.000000,-0.000805,816.1,0.11,1,23456.7000,0.0111,0.0000,0.0000,0.0000
68,14:15:01:675,-0.0014,0.0023,0.0012,0.00000,-0.00165,0.00000,-0.0223,0.000000,0.000000,0.0123,0.0017,0.0072,0.0000,0.000000,0.000000,0.000000,0.000000,-0.001814,0.000000,0.000000,-0.000796,797.0,0.19,1,23456.7000,0.0013,0.0000,0.0000,0.0000
69,14:15:01:700,0.0039,-0.0007,0.0044,0.00000,-0.00170,0.00000,-0.0258,0.000000,0.000000,0.0049,0.0083,-0.0401,0.0000,0.000000,0.000000,0.000000,0.000000,-0.001834,0.000000,0.000000,-0.000788,799.2,0.28,1,23456.7000,0.0020,0.0000,0.0000,0.0000
70,14:15:01:725,0.0061,0.0056,0.0012,0.00000,-0.00175,0.00000,-0.0255,0.000000,0.000000,0.0101,0.0053,0.0051,0.0000,0.000000,0.000000,0.000000,0.000000,-0.001853,0.000000,0.000000,-0.000779,846.0,-0.08,1,23456.7000,-0.0001,0.0000,0.0000,0.0000
71,14:15:01:750,0.0008,-0.0039,0.0017,0.00000,-0.00179,0.00000,-0.0158,0.000000,0.000000,0.0042,0.0068,0.0298,0.0000,0.000000,0.000000,0.000000,0.000000,-0.001873,0.000000,0.000000,-0.000771,775.1,-0.09,1,23456.7000,0.0039,0.0000,0.0000,0.0000
72,14:15:01:775,-0.0051,0.0031,0.0011,0.00000,-0.00184,0.00000,-0.0112,0.000000,0.000000,0.0005,-0.0054,-0.0132,0.0000,0.000000,0.000000,0.000000,0.000000,-0.001892,0.000000,0.000000,-0.000762,798.2,-0.03,1,23456.7000,0.0083,0.0000,0.0000,0.0000
73,14:15:01:800,-0.0010,0.0025,0.0018,0.00000,-0.00189,0.00000,-0.0148,0.000000,0.000000,0.0157,-0.0069,0.0303,0.0000,0.000000,0.000000,0.000000,0.000000,-0.001911,0.000000,0.000000,-0.000753,784.8,0.11,1,23456.7000,0.0008,0.0000,0.0000,0.0000
74,14:15:01:825,0.0037,0.0021,0.0029,0.00000,-0.00193,0.00000,-0.0229,0.000000,0.000000,0.0004,-0.0019,-0.0314,0.0000,0.000000,0.000000,0.000000,0.000000,-0.001930,0.000000,0.000000,-0.000745,819.6,-0.08,1,23456.7000,0.0076,0.0000,0.0000,0.0000
75,14:15:01:850,0.0017,-0.0044,-0.0046,0.00000,-0.00198,0.00000,-0.0246,0.000000,0.000000,-0.0212,-0.0022,-0.0633,0.0000,0.000000,0.000000,0.000000,0.000000,-0.001948,0.000000,0.000000,-0.000736,788.1,-0.11,1,23456.7000,-0.0005,0.0000,0.0000,0.0000
76,14:15:01:875,0.0039,0.0021,-0.0002,0.00000,-0.00203,0.00000,-0.0302,0.000000,0.000000,0.0026,-0.0031,0.0319,0.0000,0.000000,0.000000,0.000000,0.000000,-0.001966,0.000000,0.000000,-0.000728,806.9,0.23,1,23456.7000,0.0054,0.0000,0.0000,0.0000
77,14:15:01:900,0.0067,-0.0000,-0.0026,0.00000,-0.00208,0.00000,-0.0271,0.000000,0.000000,0.0082,0.0194,-0.0167,0.0000,0.000000,0.000000,0.000000,0.000000,-0.001985,0.000000,0.000000,-0.000719,814.8,-0.23,1,23456.7000,-0.0004,0.0000,0.0000,0.0000
78,14:15:01:925,0.0033,0.0016,-0.0012,0.00000,-0.00213,0.00000,-0.0320,0.000000,0.000000,-0.0021,-0.0119,-0.0030,0.0000,0.000000,0.000000,0.000000,0.000000,-0.002002,0.000000,0.000000,-0.000711,814.8,-0.13,1,23456.7000,-0.0005,0.0000,0.0000,0.0000
79,14:15:01:950,-0.0021,-0.0001,0.0005,0.00000,-0.00218,0.00000,-0.0330,0.000000,0.000000,0.0034,-0.0046,-0.0203,0.0000,0.000000,0.000000,0.000000,0.000000,-0.002020,0.000000,0.000000,-0.000702,805.0,0.02,1,23456.7000,-0.0101,0.0000,0.0000,0.0000
80,14:15:01:975,0.0014,-0.0017,0.0031,0.00000,-0.00223,0.00000,-0.0431,0.000000,0.000000,0.0067,-0.0065,-0.0348,0.0000,0.000000,0.000000,0.000000,0.000000,-0.002038,0.000000,0.000000,-0.000693,799.2,0.46,1,23456.7000,-0.0090,0.0000,0.0000,0.0000
81,14:15:02:000,0.0039,0.0003,-0.0028,0.00000,-0.00228,0.00000,-0.0518,0.000000,0.000000,0.0086,-0.0011,0.0356,0.0000,0.000000,0.000000,0.000000,0.000000,-0.002055,0.000000,0.000000,-0.000685,784.3,0.03,1,23456.7000,-0.0006,0.0000,0.0000,0.0000
82,14:15:02:025,0.0006,-0.0063,-0.0027,0.00000,-0.00233,0.00000,-0.0568,0.000000,0.000000,-0.0153,0.0023,-0.0224,0.0000,0.000000,0.000000,0.000000,0.000000,-0.002072,0.000000,0.000000,-0.000676,799.6,-0.19,1,23456.7000,0.0038,0.0000,0.0000,0.0000
83,14:15:02:050,0.0027,0.0039,0.0039,0.00000,-0.00239,0.00000,-0.0580,0.000000,0.000000,0.0073,0.0388,0.0457,0.0000,0.000000,0.000000,0.000000,0.000000,-0.002089,0.000000,0.000000,-0.000668,803.5,-0.36,1,23456.7000,-0.0002,0.0000,0.0000,0.0000
84,14:15:02:075,0.0018,0.0044,-0.0035,0.00000,-0.00244,0.00000,-0.0694,0.000000,0.000000,0.0020,0.0049,0.0281,0.0000,0.000000,0.000000,0.000000,0.000000,-0.002105,0.000000,0.000000,-0.000659,810.3,-0.34,1,23456.7000,-0.0042,0.0000,0.0000,0.0000
85,14:15:02:100,0.0016,-0.0013,-0.0031,0.00000,-0.00249,0.00000,-0.0757,0.000000,0.000000,0.0154,-0.0169,-0.0067,0.0000,0.000000,0.000000,0.000000,0.000000,-0.002122,0.000000,0.000000,-0.000651,797.1,0.11,1,23456.7000,-0.0048,0.0000,0.0000,0.0000
86,14:15:02:125,-0.0050,0.0041,0.0006,0.00000,-0.00255,0.00000,-0.0621,0.000000,0.000000,0.0064,0.0033,-0.0249,0.0000,0.000000,0.000000,0.000000,0.000000,-0.002138,0.000000,0.000000,-0.000642,836.3,-0.10,1,23456.7000,0.0038,0.0000,0.0000,0.0000
87,14:15:02:150,-0.0018,0.0002,-0.0013,0.00000,-0.00260,0.00000,-0.0522,0.000000,0.000000,0.0077,-0.0032,-0.0215,0.0000,0.000000,0.000000,0.000000,0.000000,-0.002154,0.000000,0.000000,-0.000634,796.8,-0.18,1,23456.7000,-0.0051,0.0000,0.0000,0.0000
88,14:15:02:175,-0.0013,-0.0033,-0.0009,0.00000,-0.00265,0.00000,-0.0432,0.000000,0.000000,-0.0078,0.0230,-0.0235,0.0000,0.000000,0.000000,0.000000,0.000000,-0.002169,0.000000,0.000000,-0.000625,823.4,-0.08,1,23456.7000,0.0042,0.0000,0.0000,0.0000
89,14:15:02:200,0.0021,-0.0003,0.0030,0.00000,-0.00271,0.00000,-0.0463,0.000000,0.000000,0.0010,0.0142,0.0519,0.0000,0.000000,0.000000,0.000000,0.000000,-0.002185,0.000000,0.000000,-0.000616,851.1,-0.13,1,23456.7000,0.0035,0.0000,0.0000,0.0000
90,14:15:02:225,0.0017,-0.0026,-0.0003,0.00000,-0.00276,0.00000,-0.0434,0.000000,0.000000,0.0107,0.0003,0.0130,0.0000,0.000000,0.000000,0.000000,0.000000,-0.002200,0.000000,0.000000,-0.000608,836.1,-0.33,1,23456.7000,0.0075,0.0000,0.0000,0.0000
91,14:15:02:250,-0.0061,-0.0020,0.0024,0.00000,-0.00282,0.00000,-0.0353,0.000000,0.000000,0.0006,0.0020,0.0386,0.0000,0.000000,0.000000,0.000000,0.000000,-0.002215,0.000000,0.000000,-0.000599,814.7,0.11,1,23456.7000,0.0123,0.0000,0.0000,0.0000
92,14:15:02:275,0.0030,-0.0018,-0.0013,0.00000,-0.00287,0.00000,-0.0244,0.000000,0.000000,0.0150,-0.0210,-0.0367,0.0000,0.000000,0.000000,0.000000,0.000000,-0.002230,0.000000,0.000000,-0.000591,794.3,0.04,1,23456.7000,-0.0013,0.0000,0.0000,0.0000
93,14:15:02:300,0.0040,-0.0024,0.0015,0.00000,-0.00293,0.00000,-0.0192,0.000000,0.000000,-0.0078,-0.0042,0.0046,0.0000,0.000000,0.000000,0.000000,0.000000,-0.002245,0.000000,0.000000,-0.000582,826.5,0.27,1,23456.7000,-0.0006,0.0000,0.0000,0.0000
94,14:15:02:325,0.0002,-0.0011,0.0003,0.00000,-0.00299,0.00000,-0.0173,0.000000,0.000000,-0.0148,0.0022,0.0401,0.0000,0.000000,0.000000,0.000000,0.000000,-0.002259,0.000000,0.000000,-0.000574,778.9,0.13,1,23456.7000,0.0072,0.0000,0.0000,0.0000
95,14:15:02:350,0.0010,-0.0008,0.0003,0.00000,-0.00304,0.00000,-0.0359,0.000000,0.000000,-0.0030,0.0193,-0.0149,0.0000,0.000000,0.000000,0.000000,0.000000,-0.002274,0.000000,0.000000,-0.000565,783.4,-0.28,1,23456.7000,-0.0002,0.0000,0.0000,0.0000
96,14:15:02:375,0.0012,-0.0018,0.0009,0.00000,-0.00310,0.00000,-0.0393,0.000000,0.000000,-0.0232,-0.0024,0.0302,0.0000,0.000000,0.000000,0.000000,0.000000,-0.002288,0.000000,0.000000,-0.000557,807.9,-0.20,1,23456.7000,-0.0078,0.0000,0.0000,0.0000
97,14:15:02:400,-0.0030,0.0020,-0.0018,0.00000,-0.00316,0.00000,-0.0517,0.000000,0.000000,0.0047,-0.0211,-0.0350,0.0000,0.000000,0.000000,0.000000,0.000000,-0.002301,0.000000,0.000000,-0.000548,806.1,0.21,1,23456.7000,-0.0038,0.0000,0.0000,0.0000
98,14:15:02:425,-0.0032,0.0033,0.0020,0.00000,-0.00321,0.00000,-0.0457,0.000000,0.000000,-0.0104,0.0058,-0.0331,0.0000,0.000000,0.000000,0.000000,0.000000,-0.002315,0.000000,0.000000,-0.000539,804.3,0.07,1,23456.7000,0.0019,0.0000,0.0000,0.0000
99,14:15:02:450,0.0022,0.0050,0.0002,0.00000,-0.00327,0.00000,-0.0348,0.000000,0.000000,-0.0069,0.0102,0.0147,0.0000,0.000000,0.000000,0.000000,0.000000,-0.002328,0.000000,0.000000,-0.000531,819.4,0.05,1,23456.7000,-0.0061,0.0000,0.0000,0.0000
100,14:15:02:475,-0.0032,-0.0026,0.0012,0.00000,-0.00333,0.00000,-0.0272,0.000000,0.000000,-0.0004,0.0106,-0.0064,0.0000,0.000000,0.000000,0.000000,0.000000,-0.002341,0.000000,0.000000,-0.000522,791.0,-0.40,1,23456.7000,0.0101,0.0000,0.0000,0.0000
101,14:15:02:500,-0.0005,-0.0039,0.0023,0.00000,-0.00339,0.00000,-0.0358,0.000000,0.000000,-0.0074,-0.0023,0.0445,0.0000,0.000000,0.000000,0.000000,0.000000,-0.002354,0.000000,0.000000,-0.000514,828.5,-0.04,1,23456.7000,0.0065,0.0000,0.0000,0.0000
102,14:15:02:525,-0.0043,0.0022,-0.0011,0.00000,-0.00345,0.00000,-0.0548,0.000000,0.000000,0.0033,-0.0038,-0.0545,0.0000,0.000000,0.000000,0.000000,0.000000,-0.002367,0.000000,0.000000,-0.000505,813.9,0.20,1,23456.7000,-0.0047,0.0000,0.0000,0.0000
103,14:15:02:550,-0.0013,-0.0060,-0.0023,0.00000,-0.00351,0.00000,-0.0560,0.000000,0.000000,0.0084,0.0206,0.0167,0.0000,0.000000,0.000000,0.000000,0.000000,-0.002380,0.000000,0.000000,-0.000497,789.9,-0.30,1,23456.7000,-0.0043,0.0000,0.0000,0.0000
104,14:15:02:575,0.0010,0.0007,-0.0019,0.00000,-0.00357,0.00000,-0.0609,0.000000,0.000000,0.0200,0.0022,0.0708,0.0000,0.000000,0.000000,0.000000,0.000000,-0.002392,0.000000,0.000000,-0.000488,824.5,0.17,1,23456.7000,0.0007,0.0000,0.0000,0.0000
105,14:15:02:600,-0.0032,-0.0007,0.0013,0.00000,-0.00363,0.00000,-0.0528,0.000000,0.000000,0.0038,0.0099,-0.0084,0.0000,0.000000,0.000000,0.000000,0.000000,-0.002404,0.000000,0.000000,-0.000479,821.3,0.05,1,23456.7000,-0.0021,0.0000,0.0000,0.0000
106,14:15:02:625,0.0054,0.0040,-0.0029,0.00000,-0.00369,0.00000,-0.0664,0.000000,0.000000,0.0085,0.0000,0.0127,0.0000,0.000000,0.000000,0.000000,0.000000,-0.002416,0.000000,0.000000,-0.000471,806.8,-0.36,1,23456.7000,-0.0005,0.0000,0.0000,0.0000
107,14:15:02:650,-0.0058,-0.0033,0.0034,0.00000,-0.00375,0.00000,-0.0649,0.000000,0.000000,0.0018,-0.0018,0.0133,0.0000,0.000000,0.000000,0.000000,0.000000,-0.002428,0.000000,0.000000,-0.000462,777.4,0.03,1,23456.7000,0.0034,0.0000,0.0000,0.0000
108,14:15:02:675,-0.0028,0.0032,0.0026,0.00000,-0.00381,0.00000,-0.0487,0.000000,0.000000,-0.0219,0.0195,-0.0569,0.0000,0.000000,0.000000,0.000000,0.000000,-0.002439,0.000000,0.000000,-0.000454,771.2,-0.15,1,23456.7000,-0.0010,0.0000,0.0000,0.0000
109,14:15:02:700,0.0008,0.0040,-0.0020,0.00000,-0.00387,0.00000,-0.0554,0.000000,0.000000,0.0150,0.0177,-0.0019,0.0000,0.000000,0.000000,0.000000,0.000000,-0.002450,0.000000,0.000000,-0.000445,800.8,-0.11,1,23456.7000,0.0071,0.0000,0.0000,0.0000
110,14:15:02:725,-0.0032,-0.0018,-0.0019,0.00000,-0.00393,0.00000,-0.0665,0.000000,0.000000,0.0003,0.0103,-0.0505,0.0000,0.000000,0.000000,0.000000,0.000000,-0.002461,0.000000,0.000000,-0.000437,773.4,0.08,1,23456.7000,0.0043,0.0000,0.0000,0.0000
111,14:15:02:750,-0.0009,-0.0011,-0.0017,0.00000,-0.00399,0.00000,-0.0687,0.000000,0.000000,-0.0047,-0.0027,-0.0133,0.0000,0.000000,0.000000,0.000000,0.000000,-0.002472,0.000000,0.000000,-0.000428,831.1,-0.21,1,23456.7000,0.0051,0.0000,0.0000,0.0000
112,14:15:02:775,0.0001,0.0016,-0.0002,0.00000,-0.00405,0.00000,-0.0590,0.000000,0.000000,-0.0072,-0.0048,0.0331,0.0000,0.000000,0.000000,0.000000,0.000000,-0.002483,0.000000,0.000000,-0.000420,843.3,0.04,1,23456.7000,-0.0058,0.0000,0.0000,0.0000
113,14:15:02:800,-0.0039,-0.0024,0.0033,0.00000,-0.00412,0.00000,-0.0629,0.000000,0.000000,-0.0242,-0.0110,-0.0309,0.0000,0.000000,0.000000,0.000000,0.000000,-0.002493,0.000000,0.000000,-0.000411,785.0,-0.07,1,23456.7000,-0.0072,0.0000,0.0000,0.0000
114,14:15:02:825,0.0056,0.0014,-0.0045,0.00000,-0.00418,0.00000,-0.0631,0.000000,0.000000,-0.0152,-0.0011,0.0174,0.0000,0.000000,0.000000,0.000000,0.000000,-0.002503,0.000000,0.000000,-0.000402,835.0,-0.22,1,23456.7000,-0.0001,0.0000,0.0000,0.0000
115,14:15:02:850,0.0001,0.0004,0.0025,0.00000,-0.00424,0.00000,-0.0691,0.000000,0.000000,0.0136,0.0107,0.0296,0.0000,0.000000,0.000000,0.000000,0.000000,-0.002513,0.000000,0.000000,-0.000394,805.8,-0.26,1,23456.7000,0.0090,0.0000,0.0000,0.0000
116,14:15:02:875,0.0004,-0.0023,0.0019,0.00000,-0.00431,0.00000,-0.0786,0.000000,0.000000,-0.0086,-0.0002,0.0131,0.0000,0.000000,0.000000,0.000000,0.000000,-0.002523,0.000000,0.000000,-0.000385,798.5,0.12,1,23456.7000,0.0061,0.0000,0.0000,0.0000
117,14:15:02:900,0.0031,-0.0009,-0.0001,0.00000,-0.00437,0.00000,-0.0894,0.000000,0.000000,0.0146,-0.0016,-0.0452,0.0000,0.000000,0.000000,0.000000,0.000000,-0.002533,0.000000,0.000000,-0.000377,826.6,-0.02,1,23456.7000,0.0037,0.0000,0.0000,0.0000
118,14:15:02:925,0.0021,0.0011,-0.0012,0.00000,-0.00443,0.00000,-0.0838,0.000000,0.000000,-0.0095,-0.0152,-0.0147,0.0000,0.000000,0.000000,0.000000,0.000000,-0.002542,0.000000,0.000000,-0.000368,816.9,0.09,1,23456.7000,0.0062,0.0000,0.0000,0.0000
119,14:15:02:950,-0.0024,0.0059,0.0010,0.00000,-0.00450,0.00000,-0.0922,0.000000,0.000000,0.0121,0.0003,0.0646,0.0000,0.000000,0.000000,0.000000,0.000000,-0.002551,0.000000,0.000000,-0.000360,791.3,0.30,1,23456.7000,-0.0055,0.0000,0.0000,0.0000
120,14:15:02:975,-0.0033,0.0015,0.0013,0.00000,-0.00456,0.00000,-0.0955,0.000000,0.000000,-0.0059,0.0154,-0.0622,0.0000,0.000000,0.000000,0.000000,0.000000,-0.002560,0.000000,0.000000,-0.000351,810.9,0.10,1,23456.7000,-0.0072,0.0000,0.0000,0.0000
121,14:15:03:000,0.0004,0.0030,-0.0002,0.00000,-0.00462,0.00000,-0.1019,0.000000,0.000000,0.0044,-0.0042,-0.0234,0.0000,0.000000,0.000000,0.000000,0.000000,-0.002568,0.000000,0.000000,-0.000342,816.6,0.20,1,23456.7000,0.0065,0.0000,0.0000,0.0000
122,14:15:03:025,0.0012,-0.0025,-0.0048,0.00000,-0.00469,0.00000,-0.1051,0.000000,0.000000,-0.0103,0.0085,-0.0181,0.0000,0.000000,0.000000,0.000000,0.000000,-0.002577,0.000000,0.000000,-0.000334,847.5,0.08,1,23456.7000,-0.0030,0.0000,0.0000,0.0000
123,14:15:03:050,-0.0002,-0.0050,-0.0019,0.00000,-0.00475,0.00000,-0.1012,0.000000,0.000000,0.0007,0.0021,0.0186,0.0000,0.000000,0.000000,0.000000,0.000000,-0.002585,0.000000,0.000000,-0.000325,811.7,-0.26,1,23456.7000,-0.0040,0.0000,0.0000,0.0000
124,14:15:03:075,0.0016,0.0002,0.0002,0.00000,-0.00482,0.00000,-0.1079,0.000000,0.000000,-0.0002,0.0058,0.0204,0.0000,0.000000,0.000000,0.000000,0.000000,-0.002593,0.000000,0.000000,-0.000317,808.1,-0.04,1,23456.7000,0.0030,0.0000,0.0000,0.0000
125,14:15:03:100,0.0032,0.0002,-0.0037,0.00000,-0.00488,0.00000,-0.1110,0.000000,0.000000,0.0090,0.0026,0.0536,0.0000,0.000000,0.000000,0.000000,0.000000,-0.002601,0.000000,0.000000,-0.000308,817.9,-0.34,1,23456.7000,-0.0012,0.0000,0.0000,0.0000
126,14:15:03:125,0.0007,0.0024,-0.0028,0.00000,-0.00495,0.00000,-0.1037,0.000000,0.000000,0.0022,0.0181,0.0060,0.0000,0.000000,0.000000,0.000000,0.000000,-0.002609,0.000000,0.000000,-0.000300,787.6,-0.16,1,23456.7000,-0.0006,0.0000,0.0000,0.0000
127,14:15:03:150,0.0079,-0.0012,-0.0044,0.00000,-0.00501,0.00000,-0.0992,0.000000,0.000000,0.0048,-0.0056,0.0234,0.0000,0.000000,0.000000,0.000000,0.000000,-0.002616,0.000000,0.000000,-0.000291,814.8,0.20,1,23456.7000,0.0017,0.0000,0.0000,0.0000
128,14:15:03:175,0.0004,-0.0037,0.0027,0.00000,-0.00508,0.00000,-0.0931,0.000000,0.000000,0.0042,-0.0123,0.0127,0.0000,0.000000,0.000000,0.000000,0.000000,-0.002623,0.000000,0.000000,-0.000283,780.2,0.11,1,23456.7000,0.0009,0.0000,0.0000,0.0000
129,14:15:03:200,0.0022,0.0022,0.0043,0.00000,-0.00514,0.00000,-0.0892,0.000000,0.000000,-0.0045,0.0137,0.0191,0.0000,0.000000,0.000000,0.000000,0.000000,-0.002630,0.000000,0.000000,-0.000274,847.7,0.00,1,23456.7000,-0.0081,0.0000,0.0000,0.0000
130,14:15:03:225,-0.0045,-0.0017,-0.0002,0.00000,-0.00521,0.00000,-0.0839,0.000000,0.000000,0.0009,0.0096,-0.0192,0.0000,0.000000,0.000000,0.000000,0.000000,-0.002637,0.000000,0.000000,-0.000265,805.4,0.22,1,23456.7000,-0.0023,0.0000,0.0000,0.0000
131,14:15:03:250,-0.0035,-0.0014,0.0012,0.00000,-0.00528,0.00000,-0.0847,0.000000,0.000000,0.0016,0.0119,-0.0236,0.0000,0.000000,0.000000,0.000000,0.000000,-0.002643,0.000000,0.000000,-0.000257,799.2,0.19,1,23456.7000,0.0036,0.0000,0.0000,0.0000
132,14:15:03:275,0.0008,0.0035,-0.0006,0.00000,-0.00534,0.00000,-0.0939,0.000000,0.000000,0.0177,0.0118,-0.0341,0.0000,0.000000,0.000000,0.000000,0.000000,-0.002650,0.000000,0.000000,-0.000248,837.9,-0.13,1,23456.7000,-0.0034,0.0000,0.0000,0.0000
133,14:15:03:300,-0.0007,-0.0018,-0.0017,0.00000,-0.00541,0.00000,-0.0979,0.000000,0.000000,0.0077,0.0175,-0.0204,0.0000,0.000000,0.000000,0.000000,0.000000,-0.002656,0.000000,0.000000,-0.000240,784.9,0.14,1,23456.7000,-0.0016,0.0000,0.0000,0.0000
134,14:15:03:325,0.0002,-0.0078,-0.0018,0.00000,-0.00547,0.00000,-0.0937,0.000000,0.000000,0.0001,-0.0015,0.0076,0.0000,0.000000,0.000000,0.000000,0.000000,-0.002662,0.000000,0.000000,-0.000231,787.3,-0.35,1,23456.7000,-0.0015,0.0000,0.0000,0.0000
135,14:15:03:350,-0.0014,0.0013,-0.0009,0.00000,-0.00554,0.00000,-0.0915,0.000000,0.000000,0.0093,0.0116,0.0290,0.0000,0.000000,0.000000,0.000000,0.000000,-0.002667,0.000000,0.000000,-0.000223,796.4,-0.09,1,23456.7000,-0.0128,0.0000,0.0000,0.0000
136,14:15:03:375,0.0017,0.0003,-0.0023,0.00000,-0.00561,0.00000,-0.0923,0.000000,0.000000,-0.0017,-0.0311,0.0106,0.0000,0.000000,0.000000,0.000000,0.000000,-0.002673,0.000000,0.000000,-0.000214,791.1,0.06,1,23456.7000,0.0005,0.0000,0.0000,0.0000
137,14:15:03:400,0.0036,0.0035,-0.0019,0.00000,-0.00567,0.00000,-0.0905,0.000000,0.000000,0.0001,-0.0011,-0.0088,0.0000,0.000000,0.000000,0.000000,0.000000,-0.002678,0.000000,0.000000,-0.000205,833.4,-0.07,1,23456.7000,-0.0031,0.0000,0.0000,0.0000
138,14:15:03:425,0.0043,-0.0001,0.0022,0.00000,-0.00574,0.00000,-0.0800,0.000000,0.000000,-0.0180,0.0035,0.0417,0.0000,0.000000,0.000000,0.000000,0.000000,-0.002683,0.000000,0.000000,-0.000197,779.1,0.15,1,23456.7000,0.0029,0.0000,0.0000,0.0000
139,14:15:03:450,-0.0035,0.0012,-0.0007,0.00000,-0.00581,0.00000,-0.0779,0.000000,0.000000,0.0163,-0.0128,0.0391,0.0000,0.000000,0.000000,0.000000,0.000000,-0.002688,0.000000,0.000000,-0.000188,808.7,0.08,1,23456.7000,0.0013,0.0000,0.0000,0.0000
140,14:15:03:475,0.0024,-0.0026,0.0016,0.00000,-0.00588,0.00000,-0.0668,0.000000,0.000000,0.0022,0.0214,-0.0156,0.0000,0.000000,0.000000,0.000000,0.000000,-0.002693,0.000000,0.000000,-0.000180,782.1,0.06,1,23456.7000,-0.0040,0.0000,0.0000,0.0000
141,14:15:03:500,0.0048,0.0012,0.0003,0.00000,-0.00594,0.00000,-0.0740,0.000000,0.000000,0.0014,0.0142,-0.0405,0.0000,0.000000,0.000000,0.000000,0.000000,-0.002697,0.000000,0.000000,-0.000171,771.3,0.19,1,23456.7000,0.0023,0.0000,0.0000,0.0000
142,14:15:03:525,0.0020,0.0029,-0.0004,0.00000,-0.00601,0.00000,-0.0825,0.000000,0.000000,0.0098,-0.0039,-0.0041,0.0000,0.000000,0.000000,0.000000,0.000000,-0.002701,0.000000,0.000000,-0.000163,756.3,-0.03,1,23456.7000,-0.0024,0.0000,0.0000,0.0000
143,14:15:03:550,-0.0024,0.0051,-0.0003,0.00000,-0.00608,0.00000,-0.0721,0.000000,0.000000,0.0085,-0.0020,0.0228,0.0000,0.000000,0.000000,0.000000,0.000000,-0.002705,0.000000,0.000000,-0.000154,821.5,0.31,1,23456.7000,-0.0034,0.0000,0.0000,0.0000
144,14:15:03:575,0.0036,-0.0031,-0.0008,0.00000,-0.00615,0.00000,-0.0683,0.000000,0.000000,-0.0094,0.0028,-0.0062,0.0000,0.000000,0.000000,0.000000,0.000000,-0.002709,0.000000,0.000000,-0.000146,780.1,0.18,1,23456.7000,-0.0073,0.0000,0.0000,0.0000
145,14:15:03:600,-0.0014,-0.0013,-0.0048,0.00000,-0.00621,0.00000,-0.0608,0.000000,0.000000,-0.0066,-0.0036,0.0215,0.0000,0.000000,0.000000,0.000000,0.000000,-0.002712,0.000000,0.000000,-0.000137,787.9,0.27,1,23456.7000,0.0022,0.0000,0.0000,0.0000
146,14:15:03:625,-0.0017,0.0020,-0.0010,0.00000,-0.00628,0.00000,-0.0562,0.000000,0.000000,0.0202,-0.0140,0.0002,0.0000,0.000000,0.000000,0.000000,0.000000,-0.002716,0.000000,0.000000,-0.000128,807.2,0.15,1,23456.7000,-0.0008,0.0000,0.0000,0.0000
147,14:15:03:650,-0.0026,0.0020,-0.0007,0.00000,-0.00635,0.00000,-0.0696,0.000000,0.000000,-0.0096,0.0052,0.0075,0.0000,0.000000,0.000000,0.000000,0.000000,-0.002719,0.000000,0.000000,-0.000120,815.0,-0.37,1,23456.7000,-0.0026,0.0000,0.0000,0.0000
148,14:15:03:675,-0.0013,-0.0018,0.0026,0.00000,-0.00642,0.00000,-0.0759,0.000000,0.000000,-0.0037,0.0121,0.0507,0.0000,0.000000,0.000000,0.000000,0.000000,-0.002722,0.000000,0.000000,-0.000111,781.8,0.09,1,23456.7000,-0.0078,0.0000,0.0000,0.0000
149,14:15:03:700,0.0010,0.0045,0.0022,0.00000,-0.00649,0.00000,-0.0764,0.000000,0.000000,-0.0046,-0.0030,0.0020,0.0000,0.000000,0.000000,0.000000,0.000000,-0.002724,0.000000,0.000000,-0.000103,811.1,0.05,1,23456.7000,0.0055,0.0000,0.0000,0.0000
150,14:15:03:725,-0.0038,0.0018,0.0002,0.00000,-0.00655,0.00000,-0.0886,0.000000,0.000000,0.0055,0.0117,0.0049,0.0000,0.000000,0.000000,0.000000,0.000000,-0.002727,0.000000,0.000000,-0.000094,832.8,0.04,1,23456.7000,-0.0014,0.0000,0.0000,0.0000
151,14:15:03:750,0.0019,-0.0010,-0.0007,0.00000,-0.00662,0.00000,-0.0912,0.000000,0.000000,0.0089,-0.0041,-0.0015,0.0000,0.000000,0.000000,0.000000,0.000000,-0.002729,0.000000,0.000000,-0.000086,805.2,-0.09,1,23456.7000,0.0017,0.0000,0.0000,0.0000
152,14:15:03:775,0.0015,-0.0021,0.0033,0.00000,-0.00669,0.00000,-0.0877,0.000000,0.000000,-0.0019,0.0046,0.0117,0.0000,0.000000,0.000000,0.000000,0.000000,-0.002731,0.000000,0.000000,-0.000077,786.8,0.45,1,23456.7000,0.0015,0.0000,0.0000,0.0000
153,14:15:03:800,0.0032,0.0045,0.0014,0.00000,-0.00676,0.00000,-0.0898,0.000000,0.000000,-0.0043,-0.0101,-0.0400,0.0000,0.000000,0.000000,0.000000,0.000000,-0.002733,0.000000,0.000000,-0.000068,774.7,0.30,1,23456.7000,-0.0069,0.0000,0.0000,0.0000
154,14:15:03:825,-0.0014,-0.0019,0.0028,0.00000,-0.00683,0.00000,-0.0837,0.000000,0.000000,0.0024,0.0022,-0.0545,0.0000,0.000000,0.000000,0.000000,0.000000,-0.002734,0.000000,0.000000,-0.000060,803.1,-0.10,1,23456.7000,0.0034,0.0000,0.0000,0.0000
155,14:15:03:850,-0.0023,-0.0013,0.0015,0.00000,-0.00690,0.00000,-0.0921,0.000000,0.000000,0.0049,-0.0108,-0.0364,0.0000,0.000000,0.000000,0.000000,0.000000,-0.002736,0.000000,0.000000,-0.000051,799.8,-0.30,1,23456.7000,-0.0013,0.0000,0.0000,0.0000
156,14:15:03:875,-0.0014,-0.0005,-0.0012,0.00000,-0.00696,0.00000,-0.0898,0.000000,0.000000,-0.0001,-0.0190,0.0078,0.0000,0.000000,0.000000,0.000000,0.000000,-0.002737,0.000000,0.000000,-0.000043,818.0,-0.28,1,23456.7000,-0.0010,0.0000,0.0000,0.0000
157,14:15:03:900,0.0011,0.0032,-0.0009,0.00000,-0.00703,0.00000,-0.0965,0.000000,0.000000,0.0033,-0.0060,0.0020,0.0000,0.000000,0.000000,0.000000,0.000000,-0.002738,0.000000,0.000000,-0.000034,810.0,0.23,1,23456.7000,-0.0097,0.0000,0.0000,0.0000
158,14:15:03:925,-0.0012,0.0045,0.0016,0.00000,-0.00710,0.00000,-0.1063,0.000000,0.000000,0.0043,0.0099,-0.0215,0.0000,0.000000,0.000000,0.000000,0.000000,-0.002739,0.000000,0.000000,-0.000026,788.7,-0.18,1,23456.7000,0.0061,0.0000,0.0000,0.0000
159,14:15:03:950,0.0007,0.0044,-0.0006,0.00000,-0.00717,0.00000,-0.1003,0.000000,0.000000,-0.0065,0.0102,0.0276,0.0000,0.000000,0.000000,0.000000,0.000000,-0.002739,0.000000,-3.803158,-0.000017,771.0,0.13,1,23456.7000,0.0005,0.0000,0.0000,0.0000
160,14:15:03:975,0.0014,-0.0037,-0.0005,0.00000,-0.00724,0.00000,-0.0947,0.000000,0.000000,0.0029,0.0075,-0.0029,0.0000,0.000000,0.000000,0.000000,-0.190158,-0.002740,0.000000,-7.698992,-0.000009,772.0,-0.03,1,23456.7000,-0.0011,0.0000,0.0000,0.0000
161,14:15:04:000,-0.0001,0.0025,0.0038,-0.00951,-0.00731,0.00000,-0.0812,0.000000,0.000000,0.6364,-0.0143,0.0023,0.0000,0.000000,0.000000,0.000000,-0.384950,-0.002740,0.000000,-0.276791,-0.000000,802.3,0.13,1,23456.7000,-0.0035,0.0000,0.0000,0.0000
162,14:15:04:025,-0.0018,0.0013,-0.0005,-0.01925,-0.00737,0.00000,-0.0711,0.000000,0.000000,1.3038,-0.0113,-0.0159,0.0317,0.000000,0.000000,0.000000,-0.203997,-0.002740,0.000000,7.333231,0.000009,799.1,0.12,1,23456.7000,-0.0003,0.0019,0.0000,0.0000
163,14:15:04:050,0.0003,-0.0016,-0.0024,-0.01971,-0.00744,0.00000,-0.0850,0.000000,0.000000,1.3034,0.0147,0.0030,0.0642,0.000000,0.000000,0.000000,-0.018288,-0.002739,0.000000,3.719128,0.000017,800.5,0.16,1,23456.7000,0.0032,0.0037,0.0000,0.0000
164,14:15:04:075,0.0034,-0.0002,0.0019,-0.02016,-0.00751,0.00000,-0.0757,0.000000,0.000000,1.3407,-0.0053,0.0326,0.0974,0.000000,0.000000,0.000000,-0.018041,-0.002739,0.000000,0.009880,0.000026,788.2,0.55,1,23456.7000,-0.0004,0.0056,0.0000,0.0000
165,14:15:04:100,0.0021,0.0059,-0.0016,-0.02061,-0.00758,0.00000,-0.0783,0.000000,0.000000,1.3731,0.0022,0.0181,0.1314,0.000000,0.000000,0.000000,-0.017794,-0.002738,0.000000,0.009880,0.000034,812.9,0.63,1,23456.7000,0.0024,0.0075,0.0000,0.0000
166,14:15:04:125,0.0080,0.0004,0.0035,-0.02105,-0.00765,0.00000,-0.0805,0.000000,0.000000,1.4107,0.0096,-0.0160,0.1661,0.000000,0.000000,0.000000,-0.017547,-0.002737,0.000000,0.009880,0.000043,809.9,0.67,1,23456.7000,-0.0055,0.0094,0.0000,0.0000
167,14:15:04:150,0.0051,-0.0018,-0.0009,-0.02149,-0.00772,0.00000,-0.0891,0.000000,0.000000,1.4370,0.0088,0.0592,0.2015,0.000000,0.000000,0.000000,-0.017300,-0.002736,0.000000,0.009880,0.000051,1292.8,0.84,1,23456.7000,-0.0092,0.0113,0.0000,0.0000
168,14:15:04:175,0.0115,0.0001,-0.0005,-0.02192,-0.00779,0.00000,-0.1027,0.000000,0.000000,1.4688,-0.0153,-0.0375,0.2377,0.000000,0.000000,0.000000,-0.017053,-0.002734,0.000000,0.009880,0.000060,1332.1,0.82,1,23456.7000,-0.0039,0.0131,0.0000,0.0000
169,14:15:04:200,0.0230,0.0089,-0.0002,-0.02234,-0.00785,0.00000,-0.1161,0.000000,0.000000,1.4860,-0.0018,-0.0074,0.2746,0.000000,0.000000,0.000000,-0.016806,-0.002733,0.000000,0.009880,0.000068,1389.3,0.80,1,23456.7000,-0.0018,0.0150,0.0000,0.0000
170,14:15:04:225,0.0249,0.0016,-0.0002,-0.02276,-0.00792,0.00000,-0.1227,0.000000,0.000000,1.5246,0.0100,-0.0047,0.3122,0.000000,0.000000,0.000000,-0.016559,-0.002731,0.000000,0.009880,0.000077,1298.8,1.22,2,23456.7000,-0.0052,0.0169,0.0000,0.0000
171,14:15:04:250,0.0414,-0.0016,0.0013,-0.02317,-0.00799,0.00000,-0.1121,0.000000,0.000000,1.5517,-0.0000,-0.0153,0.3504,0.000000,0.000000,0.000000,-0.016312,-0.002729,0.000000,0.009880,0.000086,1329.3,1.32,2,23456.7000,-0.0004,0.0187,0.0000,0.0000
172,14:15:04:275,0.0468,0.0045,-0.0006,-0.02357,-0.00806,0.00000,-0.1233,0.000000,0.000000,1.5642,-0.0056,-0.0045,0.3894,0.000000,0.000000,0.000000,-0.016065,-0.002727,0.000000,0.009880,0.000094,1391.9,1.17,2,23456.7001,-0.0013,0.0206,0.0000,0.0000
173,14:15:04:300,0.0609,-0.0016,0.0020,-0.02397,-0.00813,0.00000,-0.1143,0.000000,0.000000,1.6052,-0.0209,-0.0241,0.4290,0.000000,0.000000,0.000000,-0.015818,-0.002724,0.006745,0.009880,0.000103,1426.5,1.65,2,23456.7001,-0.0094,0.0225,0.0000,0.0000
174,14:15:04:325,0.0725,0.0048,-0.0001,-0.02436,-0.00819,0.00000,-0.1101,0.000000,0.000000,1.6306,-0.0319,-0.0047,0.4693,0.000000,0.000000,0.000337,-0.015571,-0.002722,0.007355,0.009880,0.000111,1472.5,1.81,2,23456.7001,0.0037,0.0244,0.0000,0.0000
175,14:15:04:350,0.0755,0.0011,-0.0007,-0.02475,-0.00826,0.00002,-0.1126,0.000000,0.000000,1.6582,-0.0314,-0.0042,0.5102,-0.001246,0.000000,0.000368,-0.015324,-0.002719,-0.005509,0.009880,0.000120,1526.7,1.72,2,23456.7001,-0.0011,0.0263,0.0000,0.0000
176,14:15:04:375,0.0929,-0.0002,-0.0017,-0.02513,-0.00833,0.00002,-0.1150,0.000000,0.000000,1.6818,0.0071,0.0446,0.5518,-0.001346,0.000000,0.000062,-0.015077,-0.002716,-0.006083,0.009880,0.000128,1582.5,2.23,2,23456.7001,-0.0058,0.0281,0.0000,0.0000
177,14:15:04:400,0.1015,0.0028,-0.0004,-0.02550,-0.00840,0.00002,-0.1226,0.000000,0.000000,1.6982,-0.0170,0.0122,0.5940,-0.001447,0.000000,0.000064,-0.014830,-0.002712,0.000070,0.009880,0.000137,1606.8,2.19,2,23456.7001,-0.0076,0.0300,0.0000,0.0000
178,14:15:04:425,0.1205,-0.0039,-0.0015,-0.02587,-0.00847,0.00002,-0.1326,0.000000,0.000000,1.7196,-0.0057,-0.0178,0.6368,-0.001549,0.000000,0.000065,-0.014583,-0.002709,0.000070,0.009880,0.000146,1645.8,2.04,2,23456.7001,0.0114,0.0319,0.0000,0.0000
179,14:15:04:450,0.1332,0.0026,0.0010,-0.02623,-0.00853,0.00002,-0.1304,0.000000,0.000000,1.7546,-0.0008,-0.0232,0.6802,-0.001652,0.000000,0.000067,-0.014336,-0.002705,0.000070,0.009880,0.000154,1705.3,2.48,2,23456.7002,-0.0025,0.0338,0.0000,0.0000
180,14:15:04:475,0.1488,0.0001,-0.0003,-0.02659,-0.00860,0.00002,-0.1234,0.000000,0.000000,1.7655,-0.0064,0.0116,0.7243,-0.001757,0.000000,0.000069,-0.014089,-0.002701,0.000070,0.009880,0.000163,1737.2,2.82,2,23456.7002,-0.0107,0.0356,0.0000,0.0000
181,14:15:04:500,0.1677,0.0050,0.0018,-0.02694,-0.00867,0.00003,-0.1094,0.000000,0.000000,1.7860,0.0010,-0.0034,0.7689,-0.001862,0.000000,0.000071,-0.013842,-0.002697,0.000070,0.009880,0.000171,1787.7,2.83,2,23456.7002,-0.0073,0.0375,0.0000,0.0000
182,14:15:04:525,0.1931,0.0057,-0.0002,-0.02728,-0.00874,0.00003,-0.1094,0.000000,0.000000,1.8112,-0.0205,0.0488,0.8140,-0.001968,0.000000,0.000072,-0.013595,-0.002693,0.000070,0.009880,0.000180,1868.7,2.79,2,23456.7002,0.0004,0.0394,0.0000,0.0000
183,14:15:04:550,0.2087,-0.0041,-0.0009,-0.02762,-0.00880,0.00003,-0.1205,0.000000,0.000000,1.8330,-0.0109,0.0594,0.8598,-0.002075,0.000000,0.000074,-0.013348,-0.002688,0.000070,0.009880,0.000188,1890.6,3.09,2,23456.7002,-0.0037,0.0412,0.0000,0.0000
184,14:15:04:575,0.2310,-0.0015,-0.0049,-0.02795,-0.00887,0.00003,-0.1196,0.000000,0.000000,1.8555,-0.0174,-0.0088,0.9061,-0.002183,0.000000,0.000076,-0.013101,-0.002683,0.000070,0.009880,0.000197,1927.4,3.30,2,23456.7003,-0.0012,0.0431,0.0000,0.0000
185,14:15:04:600,0.2595,-0.0041,0.0024,-0.02827,-0.00894,0.00003,-0.1226,0.000000,0.000000,1.8760,-0.0157,-0.0237,0.9530,-0.002292,0.000000,0.000078,-0.012854,-0.002678,0.000070,0.009880,0.000205,1988.2,3.24,2,23456.7003,-0.0002,0.0450,0.0000,0.0000
186,14:15:04:625,0.2768,-0.0045,-0.0022,-0.02859,-0.00900,0.00004,-0.1195,0.000000,0.000000,1.9026,-0.0062,-0.0777,1.0003,-0.002401,0.000000,0.000079,-0.012607,-0.002673,0.000070,0.009880,0.000214,2034.4,3.03,2,23456.7003,-0.0002,0.0469,0.0000,0.0000
187,14:15:04:650,0.3043,-0.0026,-0.0000,-0.02890,-0.00907,0.00004,-0.1200,0.000000,0.000000,1.9377,-0.0153,-0.0132,1.0483,-0.002511,0.000000,0.000081,-0.012360,-0.002667,0.000070,0.009880,0.000223,2090.1,4.27,2,23456.7003,-0.0002,0.0488,0.0000,0.0000
188,14:15:04:675,0.3313,-0.0067,0.0002,-0.02921,-0.00914,0.00004,-0.1266,0.000000,0.000000,1.9555,-0.0000,-0.0342,1.0967,-0.002622,0.000000,0.000083,-0.012113,-0.002662,0.000070,0.009880,0.000231,2122.6,3.98,2,23456.7004,-0.0009,0.0506,0.0000,0.0000
189,14:15:04:700,0.3601,-0.0012,0.0025,-0.02951,-0.00920,0.00004,-0.1280,0.000000,0.000000,1.9560,0.0105,-0.0156,1.1456,-0.002732,0.000000,0.000085,-0.011866,-0.002656,0.000070,0.009880,0.000240,2197.0,4.20,2,23456.7004,0.0081,0.0525,0.0000,0.0000
190,14:15:04:725,0.3809,-0.0011,-0.0010,-0.02980,-0.00927,0.00004,-0.1404,0.000000,0.000000,1.9809,-0.0133,0.0081,1.1950,-0.002844,0.000000,0.000086,-0.011619,-0.002650,0.000070,0.009880,0.000248,2243.2,4.20,2,23456.7004,-0.0018,0.0544,0.0000,0.0000
191,14:15:04:750,0.4197,-0.0042,0.0000,-0.03009,-0.00934,0.00005,-0.1532,0.000000,0.000000,2.0073,-0.0100,0.0006,1.2450,-0.002956,0.000000,0.000088,-0.011372,-0.002643,0.000069,0.009880,0.000257,2324.3,4.48,2,23456.7004,0.0055,0.0562,0.0000,0.0000
192,14:15:04:775,0.4502,-0.0050,0.0004,-0.03037,-0.00940,0.00005,-0.1450,0.000000,0.000000,2.0174,-0.0062,-0.0197,1.2953,-0.003068,0.000000,0.000090,-0.011125,-0.002637,0.000069,0.009880,0.000265,2374.7,4.93,2,23456.7005,0.0010,0.0581,0.0000,0.0000
193,14:15:04:800,0.4838,-0.0061,-0.0041,-0.03065,-0.00947,0.00005,-0.1512,0.000000,0.000000,2.0512,-0.0087,0.0116,1.3462,-0.003180,0.000000,0.000092,-0.010878,-0.002630,0.000069,0.009880,0.000274,2405.5,4.94,2,23456.7005,0.0048,0.0600,0.0000,0.0000
194,14:15:04:825,0.5108,-0.0023,-0.0001,-0.03091,-0.00953,0.00005,-0.1521,0.000000,0.000000,2.0635,-0.0153,0.0040,1.3975,-0.003292,0.000000,0.000093,-0.010631,-0.002623,0.000069,0.009880,0.000283,2445.4,4.77,2,23456.7005,0.0028,0.0619,0.0000,0.0000
195,14:15:04:850,0.5482,-0.0005,-0.0031,-0.03118,-0.00960,0.00006,-0.1416,0.000000,0.000000,2.0671,-0.0163,0.0125,1.4492,-0.003405,0.000000,0.000095,-0.010384,-0.002616,0.000068,0.009880,0.000291,2512.5,5.61,2,23456.7006,0.0057,0.0638,0.0000,0.0000
196,14:15:04:875,0.5891,-0.0123,-0.0015,-0.03143,-0.00967,0.00006,-0.1479,0.000000,0.000000,2.1083,0.0014,-0.1080,1.5014,-0.003518,0.000000,0.000097,-0.010137,-0.002609,0.000068,0.009880,0.000300,2591.6,5.39,2,23456.7006,0.0127,0.0656,0.0000,0.0000
197,14:15:04:900,0.6252,-0.0034,-0.0020,-0.03168,-0.00973,0.00006,-0.1354,0.000000,0.000000,2.1107,-0.0187,-0.0074,1.5540,-0.003630,0.000000,0.000098,-0.009890,-0.002601,0.000068,0.009880,0.000308,2631.0,5.52,2,23456.7007,-0.0004,0.0675,0.0000,0.0000
198,14:15:04:925,0.6617,-0.0034,-0.0023,-0.03193,-0.00980,0.00006,-0.1398,0.000000,0.000000,2.1398,-0.0064,0.0079,1.6070,-0.003743,0.000000,0.000100,-0.009643,-0.002593,0.000067,0.009880,0.000317,2670.2,5.71,2,23456.7007,0.0022,0.0694,0.0000,0.0000
199,14:15:04:950,0.7009,-0.0077,-0.0026,-0.03217,-0.00986,0.00007,-0.1480,0.000000,0.000000,2.1706,-0.0003,-0.0019,1.6604,-0.003856,0.000000,0.000102,-0.009396,-0.002585,0.000067,0.009880,0.000325,2745.5,5.88,2,23456.7007,0.0095,0.0713,0.0000,0.0000
200,14:15:04:975,0.7394,-0.0049,-0.0026,-0.03240,-0.00992,0.00007,-0.1356,0.000000,0.000000,2.1552,-0.0078,-0.0199,1.7142,-0.003968,0.000000,0.000103,-0.009149,-0.002577,0.000066,0.009880,0.000334,2817.4,6.13,2,23456.7008,0.0012,0.0731,0.0000,0.0000
201,14:15:05:000,0.7820,-0.0070,-0.0020,-0.03262,-0.00999,0.00007,-0.1346,0.000000,0.000000,2.1829,-0.0161,0.0198,1.7684,-0.004080,0.000000,0.000105,-0.008902,-0.002568,0.000066,0.009880,0.000342,2853.5,6.59,2,23456.7008,-0.0132,0.0750,0.0000,0.0000
202,14:15:05:025,0.8327,-0.0064,0.0039,-0.03284,-0.01005,0.00007,-0.1476,0.000000,0.000000,2.2019,-0.0099,-0.0181,1.8230,-0.004192,0.000000,0.000107,-0.008655,-0.002560,0.000065,0.009880,0.000351,2907.8,6.63,2,23456.7009,-0.0022,0.0769,0.0000,0.0000
203,14:15:05:050,0.8756,-0.0132,-0.0009,-0.03306,-0.01012,0.00008,-0.1560,0.000000,0.000000,2.1949,-0.0025,0.0671,1.8779,-0.004303,0.000000,0.000108,-0.008408,-0.002551,0.000065,0.009880,0.000360,2963.7,6.90,2,23456.7009,-0.0018,0.0788,0.0000,0.0000
204,14:15:05:075,0.9202,-0.0071,-0.0004,-0.03326,-0.01018,0.00008,-0.1510,0.000000,0.000000,2.2320,-0.0134,0.0320,1.9332,-0.004414,0.000000,0.000110,-0.008161,-0.002542,0.000064,0.009880,0.000368,3026.6,7.06,2,23456.7010,0.0007,0.0806,0.0000,0.0000
205,14:15:05:100,0.9644,-0.0089,0.0017,-0.03346,-0.01024,0.00008,-0.1443,0.000000,0.000000,2.2201,-0.0046,-0.0153,1.9888,-0.004524,0.000000,0.000112,-0.007914,-0.002533,0.000064,0.009880,0.000377,3092.3,7.57,2,23456.7010,-0.0032,0.0825,0.0000,0.0000
206,14:15:05:125,1.0238,-0.0106,0.0005,-0.03366,-0.01031,0.00008,-0.1398,0.000000,0.000000,2.2435,-0.0201,0.0009,2.0447,-0.004634,0.000000,0.000113,-0.007667,-0.002523,0.000063,0.009880,0.000385,3167.3,7.16,2,23456.7011,0.0116,0.0844,0.0000,0.0000
207,14:15:05:150,1.0696,-0.0141,0.0009,-0.03385,-0.01037,0.00009,-0.1429,0.000000,0.000000,2.2571,-0.0096,0.0007,2.1010,-0.004743,0.000000,0.000115,-0.007420,-0.002513,0.000063,0.009880,0.000394,3209.8,7.64,2,23456.7011,0.0109,0.0863,0.0000,0.0000
208,14:15:05:175,1.1186,-0.0149,-0.0012,-0.03403,-0.01043,0.00009,-0.1433,0.000000,0.000000,2.2618,-0.0193,-0.0151,2.1575,-0.004852,0.000000,0.000116,-0.007173,-0.002503,0.000062,0.009880,0.000402,3277.3,7.98,2,23456.7012,-0.0081,0.0881,0.0000,0.0000
209,14:15:05:200,1.1808,-0.0070,-0.0046,-0.03421,-0.01050,0.00009,-0.1431,0.000000,0.000000,2.2972,-0.0151,-0.0002,2.2144,-0.004959,0.000000,0.000118,-0.006926,-0.002493,0.000061,0.009880,0.000411,3328.0,8.00,2,23456.7012,-0.0046,0.0900,0.0000,0.0000
210,14:15:05:225,1.2358,-0.0127,-0.0002,-0.03438,-0.01056,0.00010,-0.1480,0.000000,0.000000,2.2915,-0.0045,0.0089,2.2716,-0.005066,0.000000,0.000119,-0.006679,-0.002483,0.000061,0.009880,0.000420,3369.6,8.02,2,23456.7013,0.0053,0.0919,0.0000,0.0000
211,14:15:05:250,1.2889,-0.0104,-0.0001,-0.03454,-0.01062,0.00010,-0.1563,0.000000,0.000000,2.3004,-0.0313,0.0134,2.3290,-0.005172,0.000000,0.000121,-0.006432,-0.002472,0.000060,0.009880,0.000428,3463.3,8.27,2,23456.7013,-0.0041,0.0938,0.0000,0.0000
212,14:15:05:275,1.3457,-0.0209,0.0017,-0.03470,-0.01068,0.00010,-0.1503,0.000000,0.000000,2.2894,-0.0105,0.0152,2.3867,-0.005277,0.000000,0.000122,-0.006185,-0.002461,0.000059,0.009880,0.000437,3489.6,8.44,2,23456.7014,-0.0021,0.0956,0.0000,0.0000
213,14:15:05:300,1.4070,-0.0111,0.0036,-0.03485,-0.01074,0.00011,-0.1467,0.000000,0.000000,2.3252,-0.0218,0.0013,2.4447,-0.005381,0.000000,0.000124,-0.005938,-0.002450,0.000058,0.009880,0.000445,3553.5,8.90,2,23456.7015,-0.0039,0.0975,0.0000,0.0000
214,14:15:05:325,1.4646,-0.0169,-0.0011,-0.03499,-0.01080,0.00011,-0.1502,0.000000,0.000000,2.3387,-0.0044,-0.0383,2.5029,-0.005484,0.000000,0.000125,-0.005691,-0.002439,0.000057,0.009880,0.000454,3633.1,8.70,2,23456.7015,0.0070,0.0994,0.0000,0.0000
215,14:15:05:350,1.5360,-0.0104,-0.0019,-0.03513,-0.01086,0.00011,-0.1457,0.000000,0.000000,2.3451,0.0005,-0.0173,2.5613,-0.005586,0.000000,0.000127,-0.005444,-0.002428,0.000057,0.009880,0.000462,3689.5,9.46,2,23456.7016,-0.0004,0.1013,0.0000,0.0000
216,14:15:05:375,1.5942,-0.0195,-0.0034,-0.03527,-0.01092,0.00011,-0.1282,0.000000,0.000000,2.3470,-0.0100,0.0586,2.6200,-0.005687,0.000000,0.000128,-0.005197,-0.002416,0.000056,0.009880,0.000471,3728.1,9.59,2,23456.7017,0.0063,0.1031,0.0000,0.0000
217,14:15:05:400,1.6601,-0.0187,-0.0002,-0.03539,-0.01098,0.00012,-0.1297,0.000000,0.000000,2.3683,0.0041,0.0176,2.6789,-0.005786,0.000000,0.000129,-0.004950,-0.002404,0.000055,0.009880,0.000479,3784.4,9.35,2,23456.7017,-0.0029,0.1050,0.0000,0.0000
218,14:15:05:425,1.7286,-0.0153,-0.0029,-0.03551,-0.01104,0.00012,-0.1364,0.000000,0.000000,2.3806,-0.0161,0.0167,2.7380,-0.005884,0.000000,0.000131,-0.004703,-0.002392,0.000054,0.009880,0.000488,3878.9,9.55,2,23456.7018,0.0040,0.1069,0.0000,0.0000
219,14:15:05:450,1.7938,-0.0192,-0.0027,-0.03563,-0.01110,0.00012,-0.1524,0.000000,0.000000,2.3625,0.0005,-0.0210,2.7972,-0.005981,0.000000,0.000132,-0.004456,-0.002380,0.000053,0.009880,0.000497,3135.6,10.57,3,23456.7019,-0.0013,0.1088,0.0000,0.0000
220,14:15:05:475,1.8698,-0.0166,-0.0011,-0.03574,-0.01116,0.00013,-0.1617,0.000000,0.000000,2.3824,-0.0278,-0.0041,2.8567,-0.006076,0.000000,0.000133,-0.004209,-0.002367,0.000052,0.009880,0.000505,3165.9,10.36,3,23456.7019,0.0010,0.1106,0.0000,0.0000
221,14:15:05:500,1.9378,-0.0157,-0.0003,-0.03584,-0.01122,0.00013,-0.1670,0.000000,0.000000,2.4063,-0.0177,-0.0401,2.9164,-0.006169,0.000000,0.000135,-0.003962,-0.002354,0.000051,0.009880,0.000514,3193.4,10.59,3,23456.7020,-0.0021,0.1125,0.0000,0.0000
222,14:15:05:525,2.0074,-0.0233,0.0028,-0.03594,-0.01128,0.00013,-0.1537,0.000000,0.000000,2.3946,-0.0280,-0.0228,2.9762,-0.006262,0.000000,0.000136,-0.003715,-0.002341,0.000050,0.009880,0.000522,3252.3,11.19,3,23456.7021,-0.0013,0.1144,0.0000,0.0000
223,14:15:05:550,2.0815,-0.0224,-0.0018,-0.03603,-0.01134,0.00014,-0.1641,0.000000,0.000000,2.4104,0.0002,0.0027,3.0361,-0.006352,0.000000,0.000137,-0.003468,-0.002328,0.000049,0.009880,0.000531,3315.9,10.69,3,23456.7022,-0.0005,0.1163,0.0000,0.0000
224,14:15:05:575,2.1632,-0.0223,-0.0014,-0.03611,-0.01140,0.00014,-0.1674,0.000000,0.000000,2.4021,-0.0066,-0.0094,3.0963,-0.006441,0.000000,0.000138,-0.003221,-0.002315,0.000048,0.009880,0.000539,3345.2,10.93,3,23456.7022,0.0013,0.1181,0.0000,0.0000
225,14:15:05:600,2.2406,-0.0235,-0.0007,-0.03619,-0.01146,0.00014,-0.1701,0.000000,0.000000,2.4053,-0.0159,0.0236,3.1565,-0.006527,0.000000,0.000140,-0.002974,-0.002301,0.000047,0.009880,0.000548,3375.0,11.29,3,23456.7023,0.0039,0.1200,0.0000,0.0000
226,14:15:05:625,2.3154,-0.0226,0.0020,-0.03626,-0.01151,0.00015,-0.1767,0.000000,0.000000,2.4163,-0.0152,-0.0560,3.2169,-0.006613,0.000000,0.000141,-0.002727,-0.002288,0.000045,0.009880,0.000557,3440.6,11.51,3,23456.7024,-0.0048,0.1219,0.0000,0.0000
227,14:15:05:650,2.3930,-0.0254,-0.0013,-0.03632,-0.01157,0.00015,-0.1834,0.000000,0.000000,2.4222,-0.0232,-0.0243,3.2774,-0.006696,0.000000,0.000142,-0.002480,-0.002274,0.000044,0.009880,0.000565,3502.2,11.91,3,23456.7025,-0.0066,0.1238,0.0000,0.0000
228,14:15:05:675,2.4768,-0.0265,-0.0024,-0.03638,-0.01163,0.00016,-0.1898,0.000000,0.000000,2.4400,0.0018,-0.0457,3.3380,-0.006777,0.000000,0.000143,-0.002233,-0.002259,0.000043,0.009880,0.000574,3549.0,12.20,3,23456.7026,0.0063,0.1256,0.0000,0.0000
229,14:15:05:700,2.5614,-0.0234,-0.0000,-0.03643,-0.01168,0.00016,-0.1829,0.000000,0.000000,2.4274,-0.0185,-0.0239,3.3986,-0.006856,0.000000,0.000144,-0.001986,-0.002245,0.000042,0.009880,0.000582,3569.3,12.72,3,23456.7026,0.0102,0.1275,0.0000,0.0000
230,14:15:05:725,2.6537,-0.0244,-0.0033,-0.03648,-0.01174,0.00016,-0.1873,0.000000,0.000000,2.4257,-0.0106,-0.0046,3.4594,-0.006933,0.000000,0.000145,-0.001739,-0.002230,0.000041,0.009880,0.000591,3604.8,12.62,3,23456.7027,0.0048,0.1294,0.0000,0.0000
231,14:15:05:750,2.7328,-0.0298,0.0011,-0.03652,-0.01179,0.00017,-0.1728,0.000000,0.000000,2.4336,-0.0178,-0.0626,3.5202,-0.007008,0.000000,0.000146,-0.001492,-0.002215,0.000039,0.009880,0.000599,3627.4,12.71,3,23456.7028,0.0065,0.1313,0.0000,0.0000
232,14:15:05:775,2.8187,-0.0332,-0.0015,-0.03656,-0.01185,0.00017,-0.1727,0.000000,0.000000,2.4459,-0.0093,0.0245,3.5811,-0.007081,0.000000,0.000147,-0.001245,-0.002200,0.000038,0.009880,0.000608,3682.9,12.75,3,23456.7029,-0.0019,0.1331,0.0000,0.0000
233,14:15:05:800,2.9122,-0.0317,0.0019,-0.03658,-0.01190,0.00017,-0.1789,0.000000,0.000000,2.4634,-0.0144,-0.0092,3.6421,-0.007152,0.000000,0.000148,-0.000998,-0.002185,0.000037,0.009880,0.000616,3757.4,13.59,3,23456.7030,0.0031,0.1350,0.0000,0.0000
234,14:15:05:825,2.9982,-0.0281,-0.0007,-0.03661,-0.01196,0.00018,-0.1703,0.000000,0.000000,2.4225,-0.0039,0.0190,3.7031,-0.007220,0.000000,0.000149,-0.000751,-0.002169,0.000035,0.009880,0.000625,3794.0,13.48,3,23456.7031,0.0022,0.1369,0.0000,0.0000
235,14:15:05:850,3.0915,-0.0304,-0.0004,-0.03662,-0.01201,0.00018,-0.1734,0.000000,0.000000,2.4324,-0.0105,0.0080,3.7641,-0.007286,0.000000,0.000150,-0.000504,-0.002154,0.000034,0.009880,0.000634,3829.0,13.23,3,23456.7032,0.0009,0.1388,0.0000,0.0000
236,14:15:05:875,3.1875,-0.0291,-0.0052,-0.03663,-0.01207,0.00018,-0.1841,0.000000,0.000000,2.4538,-0.0114,-0.0060,3.8252,-0.007349,0.000000,0.000151,-0.000257,-0.002138,0.000033,0.009880,0.000642,3858.0,13.73,3,23456.7033,-0.0042,0.1406,0.0000,0.0000
237,14:15:05:900,3.2802,-0.0384,-0.0025,-0.03663,-0.01212,0.00019,-0.1901,0.000000,0.000000,2.4455,-0.0036,0.0383,3.8862,-0.007410,0.000000,0.000151,-0.000010,-0.002122,0.000031,0.009880,0.000651,3925.8,14.18,3,23456.7034,-0.0081,0.1425,0.0000,0.0000
238,14:15:05:925,3.3838,-0.0377,0.0003,-0.03663,-0.01217,0.00019,-0.1807,0.000000,0.000000,2.4456,-0.0080,-0.0049,3.9473,-0.007469,0.000000,0.000152,0.000237,-0.002105,0.000030,0.009880,0.000659,3967.5,14.07,3,23456.7035,0.0062,0.1444,0.0000,0.0000
239,14:15:05:950,3.4820,-0.0379,-0.0014,-0.03662,-0.01223,0.00020,-0.1797,0.000000,0.000000,2.4530,-0.0096,0.0090,4.0083,-0.007525,0.000000,0.000153,0.000484,-0.002089,0.000029,0.009880,0.000668,4009.9,14.78,3,23456.7036,0.0039,0.1463,0.0000,0.0000
240,14:15:05:975,3.5845,-0.0380,0.0011,-0.03661,-0.01228,0.00020,-0.1801,0.000000,0.000000,2.4391,-0.0182,0.0026,4.0693,-0.007578,0.000000,0.000154,0.000731,-0.002072,0.000027,0.009880,0.000676,4034.7,14.58,3,23456.7037,-0.0033,0.1481,0.0000,0.0000
241,14:15:06:000,3.6787,-0.0414,0.0001,-0.03659,-0.01233,0.00020,-0.1888,0.000000,0.000000,2.4501,-0.0175,0.0092,4.1303,-0.007629,0.000000,0.000154,0.000978,-0.002055,0.000026,0.009880,0.000685,4079.6,14.74,3,23456.7038,0.0018,0.1500,0.0000,0.0000
