序号,TimeStamp,Location_X,Location_Y,Location_Z,Pitch,Yaw,Roll,VehicleOffset,RoadCurvature,RoadSlope,ShaftAcceleration_X,ShaftAcceleration_Y,ShaftAcceleration_Z,ShaftSpeed_X,ShaftSpeed_Y,ShaftSpeed_Z,AngularVelocity_X,AngularVelocity_Y,AngularVelocity_Z,AngularAcceleration_X,AngularAcceleration_Y,AngularAcceleration_Z,Revolution,SpeedMeter,Gear,Mileage,Steering,Throttle,Brake,Parking
1,08:30:00:000,0.0011,0.0011,0.0005,-0.00000,0.00000,0.00000,0.0000,0.000000,0.000000,-0.0047,0.0071,0.0004,0.0000,0.000000,0.000000,0.000000,0.000000,-0.000025,0.000000,0.000000,-0.000994,717.0,-0.01,1,12345.6000,0.0015,0.0000,0.0000,0.0000
2,08:30:00:025,-0.0013,-0.0024,0.0009,-0.00000,-0.00000,0.00000,-0.0024,0.000000,0.000000,-0.0060,0.0008,0.0003,0.0000,0.000000,0.000000,0.000000,0.000000,-0.000050,0.000000,0.000000,-0.001491,769.0,-0.19,1,12345.6000,-0.0002,0.0000,0.0000,0.0000
3,08:30:00:050,-0.0014,-0.0021,-0.0008,-0.00000,-0.00000,0.00000,0.0004,0.000000,0.000000,-0.0013,0.0084,0.0093,0.0000,0.000000,0.000000,0.000000,0.000000,-0.000099,0.000000,0.000000,-0.001985,752.9,0.13,1,12345.6000,-0.0042,0.0000,0.0000,0.0000
4,08:30:00:075,0.0029,0.0008,0.0025,-0.00000,-0.00001,0.00000,-0.0015,0.000000,0.000000,0.0077,0.0124,0.0291,0.0000,0.000000,0.000000,0.000000,0.000000,-0.000149,0.000000,0.000000,-0.001980,744.3,0.11,1,12345.6000,-0.0021,0.0000,0.0000,0.0000
5,08:30:00:100,0.0037,0.0021,-0.0015,-0.00000,-0.00001,0.00000,-0.0010,0.000000,0.000000,0.0125,-0.0010,-0.0058,0.0000,0.000000,0.000000,0.000000,0.000000,-0.000198,0.000000,0.000000,-0.001976,762.9,-0.10,1,12345.6000,-0.0008,0.0000,0.0000,0.0000
6,08:30:00:125,-0.0019,0.0021,-0.0009,-0.00000,-0.00002,0.00000,-0.0001,0.000000,0.000000,0.0089,0.0070,-0.0048,0.0000,0.000000,0.000000,0.000000,0.000000,-0.000248,0.000000,0.000000,-0.001972,772.9,0.11,1,12345.6000,-0.0048,0.0000,0.0000,0.0000
7,08:30:00:150,-0.0013,-0.0020,0.0002,-0.00000,-0.00002,0.00000,-0.0018,0.000000,0.000000,0.0040,0.0083,0.0323,0.0000,0.000000,0.000000,0.000000,0.000000,-0.000297,0.000000,0.000000,-0.001968,708.0,0.06,1,12345.6000,-0.0022,0.0000,0.0000,0.0000
8,08:30:00:175,0.0023,0.0020,0.0022,-0.00000,-0.00003,0.00000,-0.0015,0.000000,0.000000,0.0079,0.0013,0.0088,0.0000,0.000000,0.000000,0.000000,0.000000,-0.000346,0.000000,0.000000,-0.001963,756.5,-0.19,1,12345.6000,0.0020,0.0000,0.0000,0.0000
9,08:30:00:200,0.0011,-0.0036,-0.0006,-0.00000,-0.00004,0.00000,-0.0034,0.000000,0.000000,-0.0095,0.0157,-0.0078,0.0000,0.000000,0.000000,0.000000,0.000000,-0.000395,0.000000,0.000000,-0.001959,728.6,-0.13,1,12345.6000,0.0043,0.0000,0.0000,0.0000
10,08:30:00:225,0.0014,-0.0004,-0.0011,-0.00000,-0.00005,0.00000,-0.0053,0.000000,0.000000,-0.0057,0.0084,0.0091,0.0000,0.000000,0.000000,0.000000,0.000000,-0.000444,0.000000,0.000000,-0.001955,757.5,0.17,1,12345.6000,-0.0013,0.0000,0.0000,0.0000
11,08:30:00:250,0.0018,0.0010,0.0005,-0.00000,-0.00006,0.00000,0.0001,0.000000,0.000000,0.0042,-0.0047,-0.0038,0.0000,0.000000,0.000000,0.000000,0.000000,-0.000493,0.000000,0.000000,-0.001950,751.9,0.05,1,12345.6000,0.0023,0.0000,0.0000,0.0000
12,08:30:00:275,-0.0005,-0.0042,-0.0002,-0.00000,-0.00007,0.00000,0.0010,0.000000,0.000000,-0.0009,0.0021,-0.0052,0.0000,0.000000,0.000000,0.000000,0.000000,-0.000542,0.000000,0.000000,-0.001946,759.5,-0.08,1,12345.6000,-0.0057,0.0000,0.0000,0.0000
13,08:30:00:300,0.0007,0.0042,0.0007,-0.00000,-0.00009,0.00000,0.0027,0.000000,0.000000,0.0027,0.0069,0.0115,0.0000,0.000000,0.000000,0.000000,0.000000,-0.000590,0.000000,0.000000,-0.001942,742.5,-0.13,1,12345.6000,0.0020,0.0000,0.0000,0.0000
14,08:30:00:325,0.0005,0.0027,-0.0001,-0.00000,-0.00010,0.00000,-0.0046,0.000000,0.000000,0.0078,0.0154,-0.0430,0.0000,0.000000,0.000000,0.000000,0.000000,-0.000639,0.000000,0.000000,-0.001938,721.9,-0.08,1,12345.6000,-0.0024,0.0000,0.0000,0.0000
15,08:30:00:350,-0.0017,0.0013,-0.0009,-0.00000,-0.00012,0.00000,-0.0024,0.000000,0.000000,0.0066,0.0050,-0.0281,0.0000,0.000000,0.000000,0.000000,0.000000,-0.000687,0.000000,0.000000,-0.001933,743.2,-0.07,1,12345.6000,0.0009,0.0000,0.0000,0.0000
16,08:30:00:375,0.0006,-0.0019,0.0023,-0.00000,-0.00014,0.00000,0.0002,0.000000,0.000000,-0.0087,0.0023,-0.0108,0.0000,0.000000,0.000000,0.000000,0.000000,-0.000735,0.000000,0.000000,-0.001929,756.1,-0.13,1,12345.6000,-0.0007,0.0000,0.0000,0.0000
17,08:30:00:400,0.0025,-0.0001,-0.0030,-0.00000,-0.00016,0.00000,-0.0018,0.000000,0.000000,0.0001,0.0101,-0.0168,0.0000,0.000000,0.000000,0.000000,0.000000,-0.000784,0.000000,0.000000,-0.001925,765.2,-0.26,1,12345.6000,0.0040,0.0000,0.0000,0.0000
18,08:30:00:425,-0.0007,0.0016,0.0018,-0.00000,-0.00018,0.00000,0.0087,0.000000,0.000000,-0.0074,-0.0018,0.0097,0.0000,0.000000,0.000000,0.000000,0.000000,-0.000832,0.000000,0.000000,-0.001921,732.4,0.17,1,12345.6000,-0.0026,0.0000,0.0000,0.0000
19,08:30:00:450,0.0003,-0.0022,0.0009,-0.00000,-0.00020,0.00000,-0.0028,0.000000,0.000000,-0.0062,-0.0079,-0.0159,0.0000,0.000000,0.000000,0.000000,0.000000,-0.000880,0.000000,0.000000,-0.001916,765.4,0.15,1,12345.6000,0.0019,0.0000,0.0000,0.0000
20,08:30:00:475,0.0004,-0.0004,-0.0007,-0.00000,-0.00022,0.00000,0.0011,0.000000,0.000000,-0.0137,0.0056,-0.0337,0.0000,0.000000,0.000000,0.000000,0.000000,-0.000927,0.000000,0.000000,-0.001912,740.3,-0.19,1,12345.6000,-0.0008,0.0000,0.0000,0.0000
21,08:30:00:500,-0.0006,0.0018,0.0019,-0.00000,-0.00025,0.00000,0.0047,0.000000,0.000000,0.0011,-0.0030,0.0341,0.0000,0.000000,0.000000,0.000000,0.000000,-0.000975,0.000000,0.000000,-0.001908,755.4,0.02,1,12345.6000,-0.0005,0.0000,0.0000,0.0000
22,08:30:00:525,0.0014,-0.0030,-0.0014,-0.00000,-0.00027,0.00000,0.0074,0.000000,0.000000,-0.0143,0.0217,-0.0028,0.0000,0.000000,0.000000,0.000000,0.000000,-0.001023,0.000000,0.000000,-0.001903,742.4,-0.14,1,12345.6000,-0.0006,0.0000,0.0000,0.0000
23,08:30:00:550,-0.0014,0.0007,0.0010,-0.00000,-0.00030,0.00000,0.0082,0.000000,0.000000,0.0032,0.0020,-0.0060,0.0000,0.000000,0.000000,0.000000,0.000000,-0.001070,0.000000,0.000000,-0.001899,752.7,-0.04,1,12345.6000,-0.0025,0.0000,0.0000,0.0000
24,08:30:00:575,0.0027,-0.0035,-0.0021,-0.00000,-0.00032,0.00000,0.0110,0.000000,0.000000,0.0109,0.0057,-0.0309,0.0000,0.000000,0.000000,0.000000,0.000000,-0.001118,0.000000,0.000000,-0.001895,763.4,-0.05,1,12345.6000,-0.0000,0.0000,0.0000,0.0000
25,08:30:00:600,0.0013,-0.0019,-0.0011,-0.00000,-0.00035,0.00000,0.0153,0.000000,0.000000,0.0042,-0.0050,-0.0170,0.0000,0.000000,0.000000,0.000000,0.000000,-0.001165,0.000000,0.000000,-0.001891,731.6,-0.06,1,12345.6000,-0.0002,0.0000,0.0000,0.0000
26,08:30:00:625,-0.0019,-0.0010,-0.0011,-0.00000,-0.00038,0.00000,0.0116,0.000000,0.000000,0.0004,0.0101,-0.0049,0.0000,0.000000,0.000000,0.000000,0.000000,-0.001212,0.000000,0.000000,-0.001886,739.8,0.30,1,12345.6000,0.0007,0.0000,0.0000,0.0000
27,08:30:00:650,0.0034,0.0010,-0.0008,-0.00000,-0.00041,0.00000,0.0131,0.000000,0.000000,0.0123,-0.0002,-0.0188,0.0000,0.000000,0.000000,0.000000,0.000000,-0.001259,0.000000,0.000000,-0.001882,752.8,-0.07,1,12345.6000,0.0003,0.0000,0.0000,0.0000
28,08:30:00:675,0.0003,-0.0014,0.0000,-0.00000,-0.00045,0.00000,0.0121,0.000000,0.000000,0.0026,-0.0010,0.0001,0.0000,0.000000,0.000000,0.000000,0.000000,-0.001306,0.000000,0.000000,-0.001878,786.0,-0.12,1,12345.6000,0.0024,0.0000,0.0000,0.0000
29,08:30:00:700,-0.0014,0.0003,-0.0008,-0.00000,-0.00048,0.00000,0.0066,0.000000,0.000000,-0.0069,-0.0008,-0.0186,0.0000,0.000000,0.000000,0.000000,0.000000,-0.001353,0.000000,0.000000,-0.001874,737.1,-0.11,1,12345.6000,0.0028,0.0000,0.0000,0.0000
30,08:30:00:725,0.0022,-0.0014,-0.0020,-0.00000,-0.00051,0.00000,0.0102,0.000000,0.000000,0.0010,-0.0103,0.0041,0.0000,0.000000,0.000000,0.000000,0.000000,-0.001400,0.000000,0.000000,-0.001869,780.6,0.16,1,12345.6000,-0.0032,0.0000,0.0000,0.0000
31,08:30:00:750,0.0010,-0.0011,0.0005,-0.00000,-0.00055,0.00000,0.0073,0.000000,0.000000,0.0157,-0.0020,-0.0143,0.0000,0.000000,0.000000,0.000000,0.000000,-0.001447,0.000000,0.000000,-0.001865,780.1,-0.25,1,12345.6000,0.0026,0.0000,0.0000,0.0000
32,08:30:00:775,-0.0035,0.0025,0.0000,-0.00000,-0.00059,0.00000,-0.0002,0.000000,0.000000,-0.0087,0.0044,0.0403,0.0000,0.000000,0.000000,0.000000,0.000000,-0.001493,0.000000,0.000000,-0.001861,748.5,-0.11,1,12345.6000,-0.0036,0.0000,0.0000,0.0000
33,08:30:00:800,-0.0011,-0.0023,0.0004,-0.00000,-0.00062,0.00000,-0.0029,0.000000,0.000000,-0.0110,-0.0124,0.0054,0.0000,0.000000,0.000000,0.000000,0.000000,-0.001540,0.000000,0.000000,-0.001856,745.5,0.22,1,12345.6000,0.0018,0.0000,0.0000,0.0000
34,08:30:00:825,0.0006,0.0015,0.0002,-0.00000,-0.00066,0.00000,-0.0069,0.000000,0.000000,0.0049,0.0082,-0.0173,0.0000,0.000000,0.000000,0.000000,0.000000,-0.001586,0.000000,0.000000,-0.001852,739.6,0.04,1,12345.6000,0.0019,0.0000,0.0000,0.0000
35,08:30:00:850,-0.0043,-0.0000,0.0010,-0.00000,-0.00070,0.00000,-0.0017,0.000000,0.000000,-0.0018,-0.0021,0.0172,0.0000,0.000000,0.000000,0.000000,0.000000,-0.001632,0.000000,0.000000,-0.001848,749.0,0.03,1,12345.6000,-0.0057,0.0000,0.0000,0.0000
36,08:30:00:875,0.0002,-0.0012,-0.0001,-0.00000,-0.00074,0.00000,-0.0010,0.000000,0.000000,-0.0043,0.0020,-0.0246,0.0000,0.000000,0.000000,0.000000,0.000000,-0.001679,0.000000,0.000000,-0.001844,728.9,0.32,1,12345.6000,0.0003,0.0000,0.0000,0.0000
37,08:30:00:900,0.0003,-0.0024,0.0010,-0.00000,-0.00079,0.00000,0.0060,0.000000,0.000000,-0.0101,-0.0179,0.0069,0.0000,0.000000,0.000000,0.000000,0.000000,-0.001725,0.000000,0.000000,-0.001839,748.9,0.04,1,12345.6000,-0.0014,0.0000,0.0000,0.0000
38,08:30:00:925,-0.0024,-0.0023,-0.0008,-0.00000,-0.00083,0.00000,0.0026,0.000000,0.000000,-0.0156,0.0018,-0.0403,0.0000,0.000000,0.000000,0.000000,0.000000,-0.001771,0.000000,0.000000,-0.001835,772.5,-0.11,1,12345.6000,-0.0023,0.0000,0.0000,0.0000
39,08:30:00:950,0.0005,-0.0015,-0.0007,-0.00000,-0.00087,0.00000,0.0070,0.000000,0.000000,-0.0117,-0.0083,-0.0231,0.0000,0.000000,0.000000,0.000000,0.000000,-0.001816,0.000000,0.000000,-0.001831,740.8,-0.04,1,12345.6000,0.0041,0.0000,0.0000,0.0000
40,08:30:00:975,0.0000,-0.0003,0.0014,-0.00000,-0.00092,0.00000,0.0212,0.000000,0.000000,0.0129,-0.0028,0.0026,0.0000,0.000000,0.000000,0.000000,0.000000,-0.001862,0.000000,0.000000,-0.001827,746.4,-0.17,1,12345.6000,-0.0020,0.0000,0.0000,0.0000
41,08:30:01:000,-0.0024,0.0012,0.0014,-0.00000,-0.00097,0.00000,0.0229,0.000000,0.000000,-0.0001,-0.0125,0.0140,0.0000,0.000000,0.000000,0.000000,0.000000,-0.001908,0.000000,0.000000,-0.001822,724.5,0.19,1,12345.6000,-0.0024,0.0000,0.0000,0.0000
42,08:30:01:025,0.0018,-0.0006,0.0006,-0.00000,-0.00102,0.00000,0.0271,0.000000,0.000000,-0.0157,-0.0071,0.0128,0.0000,0.000000,0.000000,0.000000,0.000000,-0.001953,0.000000,0.000000,-0.001818,755.6,0.09,1,12345.6000,0.0002,0.0000,0.0000,0.0000
43,08:30:01:050,0.0017,-0.0005,-0.0009,-0.00000,-0.00107,0.00000,0.0305,0.000000,0.000000,0.0095,-0.0013,-0.0047,0.0000,0.000000,0.000000,0.000000,0.000000,-0.001999,0.000000,0.000000,-0.001814,754.0,0.17,1,12345.6000,0.0021,0.0000,0.0000,0.0000
44,08:30:01:075,-0.0006,-0.0002,-0.0010,-0.00000,-0.00112,0.00000,0.0233,0.000000,0.000000,0.0099,-0.0022,-0.0059,0.0000,0.000000,0.000000,0.000000,0.000000,-0.002044,0.000000,0.000000,-0.001809,751.0,0.18,1,12345.6000,-0.0004,0.0000,0.0000,0.0000
45,08:30:01:100,-0.0004,0.0010,0.0013,-0.00000,-0.00117,0.00000,0.0262,0.000000,0.000000,0.0098,0.0071,-0.0274,0.0000,0.000000,0.000000,0.000000,0.000000,-0.002089,0.000000,0.000000,-0.001805,746.7,-0.06,1,12345.6000,0.0035,0.0000,0.0000,0.0000
46,08:30:01:125,0.0015,0.0013,0.0013,-0.00000,-0.00122,0.00000,0.0276,0.000000,0.000000,-0.0034,-0.0149,-0.0119,0.0000,0.000000,0.000000,0.000000,0.000000,-0.002134,0.000000,0.000000,-0.001801,745.6,-0.14,1,12345.6000,0.0016,0.0000,0.0000,0.0000
47,08:30:01:150,-0.0004,-0.0028,-0.0001,-0.00000,-0.00127,0.00000,0.0262,0.000000,0.000000,-0.0022,-0.0004,-0.0077,0.0000,0.000000,0.000000,0.000000,0.000000,-0.002179,0.000000,0.000000,-0.001797,757.5,-0.01,1,12345.6000,-0.0065,0.0000,0.0000,0.0000
48,08:30:01:175,-0.0039,-0.0006,0.0023,-0.00000,-0.00133,0.00000,0.0217,0.000000,0.000000,0.0011,-0.0008,0.0149,0.0000,0.000000,0.000000,0.000000,0.000000,-0.002224,0.000000,0.000000,-0.001792,749.6,-0.13,1,12345.6000,-0.0016,0.0000,0.0000,0.0000
49,08:30:01:200,0.0010,0.0025,0.0005,-0.00000,-0.00139,0.00000,0.0251,0.000000,0.000000,0.0112,-0.0037,0.0077,0.0000,0.000000,0.000000,0.000000,0.000000,-0.002269,0.000000,0.000000,-0.001788,754.7,0.02,1,12345.6000,-0.0017,0.0000,0.0000,0.0000
50,08:30:01:225,-0.0016,-0.0026,-0.0011,-0.00000,-0.00144,0.00000,0.0202,0.000000,0.000000,-0.0044,-0.0073,-0.0340,0.0000,0.000000,0.000000,0.000000,0.000000,-0.002313,0.000000,0.000000,-0.001784,753.2,0.17,1,12345.6000,0.0014,0.0000,0.0000,0.0000
51,08:30:01:250,-0.0008,0.0001,-0.0003,-0.00000,-0.00150,0.00000,0.0308,0.000000,0.000000,-0.0060,0.0088,0.0122,0.0000,0.000000,0.000000,0.000000,0.000000,-0.002358,0.000000,0.000000,-0.001780,766.9,-0.03,1,12345.6000,-0.0079,0.0000,0.0000,0.0000
52,08:30:01:275,0.0029,-0.0003,0.0000,-0.00000,-0.00156,0.00000,0.0313,0.000000,0.000000,0.0056,0.0164,-0.0040,0.0000,0.000000,0.000000,0.000000,0.000000,-0.002402,0.000000,0.000000,-0.001775,760.2,0.02,1,12345.6000,0.0076,0.0000,0.0000,0.0000
53,08:30:01:300,-0.0003,-0.0011,0.0001,-0.00000,-0.00162,0.00000,0.0251,0.000000,0.000000,0.0097,-0.0137,-0.0075,0.0000,0.000000,0.000000,0.000000,0.000000,-0.002447,0.000000,0.000000,-0.001771,752.9,-0.01,1,12345.6000,0.0016,0.0000,0.0000,0.0000
54,08:30:01:325,0.0000,0.0032,0.0013,-0.00000,-0.00168,0.00000,0.0224,0.000000,0.000000,-0.0004,-0.0074,0.0072,0.0000,0.000000,0.000000,0.000000,0.000000,-0.002491,0.000000,0.000000,-0.001767,772.8,0.12,1,12345.6000,0.0004,0.0000,0.0000,0.0000
55,08:30:01:350,0.0010,0.0001,-0.0010,-0.00000,-0.00175,0.00000,0.0210,0.000000,0.000000,0.0054,-0.0080,0.0156,0.0000,0.000000,0.000000,0.000000,0.000000,-0.002535,0.000000,0.000000,-0.001763,756.3,-0.10,1,12345.6000,0.0035,0.0000,0.0000,0.0000
56,08:30:01:375,0.0010,0.0030,-0.0013,-0.00000,-0.00181,0.00000,0.0330,0.000000,0.000000,0.0009,-0.0023,0.0203,0.0000,0.000000,0.000000,0.000000,0.000000,-0.002579,0.000000,0.000000,-0.001758,769.6,-0.33,1,12345.6000,0.0070,0.0000,0.0000,0.0000
57,08:30:01:400,-0.0018,0.0000,0.0006,-0.00000,-0.00188,0.00000,0.0284,0.000000,0.000000,-0.0020,0.0100,-0.0111,0.0000,0.000000,0.000000,0.000000,0.000000,-0.002623,0.000000,0.000000,-0.001754,759.1,0.07,1,12345.6000,0.0026,0.0000,0.0000,0.0000
58,08:30:01:425,-0.0001,0.0009,-0.0005,-0.00000,-0.00194,0.00000,0.0278,0.000000,0.000000,-0.0066,0.0042,-0.0072,0.0000,0.000000,0.000000,0.000000,0.000000,-0.002667,0.000000,0.000000,-0.001750,722.4,0.15,1,12345.6000,0.0028,0.0000,0.0000,0.0000
59,08:30:01:450,0.0001,-0.0012,0.0024,-0.00000,-0.00201,0.00000,0.0250,0.000000,0.000000,-0.0092,-0.0012,0.0029,0.0000,0.000000,0.000000,0.000000,0.000000,-0.002710,0.000000,0.000000,-0.001745,769.6,0.07,1,12345.6000,0.0004,0.0000,0.0000,0.0000
60,08:30:01:475,0.0005,-0.0011,0.0009,-0.00000,-0.00208,0.00000,0.0274,0.000000,0.000000,-0.0049,0.0001,0.0115,0.0000,0.000000,0.000000,0.000000,0.000000,-0.002754,0.000000,0.000000,-0.001741,752.0,-0.10,1,12345.6000,-0.0004,0.0000,0.0000,0.0000
61,08:30:01:500,0.0006,0.0008,-0.0005,-0.00000,-0.00215,0.00000,0.0247,0.000000,0.000000,-0.0078,-0.0026,-0.0078,0.0000,0.000000,0.000000,0.000000,0.000000,-0.002798,0.000000,0.000000,-0.001737,749.2,-0.17,1,12345.6000,-0.0014,0.0000,0.0000,0.0000
62,08:30:01:525,0.0052,0.0009,0.0012,-0.00000,-0.00222,0.00000,0.0190,0.000000,0.000000,0.0023,0.0059,-0.0043,0.0000,0.000000,0.000000,0.000000,0.000000,-0.002841,0.000000,0.000000,-0.001733,754.2,0.07,1,12345.6000,-0.0025,0.0000,0.0000,0.0000
63,08:30:01:550,-0.0024,0.0012,0.0007,-0.00000,-0.00229,0.00000,0.0179,0.000000,0.000000,0.0097,0.0069,-0.0243,0.0000,0.000000,0.000000,0.000000,0.000000,-0.002884,0.000000,0.000000,-0.001728,744.8,0.02,1,12345.6000,-0.0021,0.0000,0.0000,0.0000
64,08:30:01:575,0.0020,0.0008,0.0006,-0.00000,-0.00236,0.00000,0.0164,0.000000,0.000000,0.0016,0.0047,-0.0194,0.0000,0.000000,0.000000,0.000000,0.000000,-0.002927,0.000000,0.000000,-0.001724,753.4,-0.02,1,12345.6000,-0.0041,0.0000,0.0000,0.0000
65,08:30:01:600,0.0024,-0.0027,-0.0001,-0.00000,-0.00243,0.00000,0.0134,0.000000,0.000000,-0.0074,-0.0176,0.0158,0.0000,0.000000,0.000000,0.000000,0.000000,-0.002970,0.000000,0.000000,-0.001720,741.1,0.27,1,12345.6000,-0.0002,0.0000,0.0000,0.0000
66,08:30:01:625,0.0010,-0.0016,0.0004,-0.00000,-0.00251,0.00000,0.0106,0.000000,0.000000,0.0068,0.0001,0.0271,0.0000,0.000000,0.000000,0.000000,0.000000,-0.003013,0.000000,0.000000,-0.001716,769.1,-0.14,1,12345.6000,-0.0051,0.0000,0.0000,0.0000
67,08:30:01:650,-0.0013,0.0017,-0.0021,-0.00000,-0.00259,0.00000,0.0165,0.000000,0.000000,0.0024,-0.0015,0.0031,0.0000,0.000000,0.000000,0.000000,0.000000,-0.003056,0.000000,0.000000,-0.001711,748.3,0.27,1,12345.6000,0.0006,0.0000,0.0000,0.0000
68,08:30:01:675,0.0033,-0.0039,0.0013,-0.00000,-0.00266,0.00000,0.0149,0.000000,0.000000,0.0040,0.0079,0.0310,0.0000,0.000000,0.000000,0.000000,0.000000,-0.003099,0.000000,0.000000,-0.001707,744.3,0.00,1,12345.6000,-0.0001,0.0000,0.0000,0.0000
69,08:30:01:700,-0.0044,0.0006,-0.0034,-0.00000,-0.00274,0.00000,0.0092,0.000000,0.000000,-0.0042,0.0019,0.0050,0.0000,0.000000,0.000000,0.000000,0.000000,-0.003141,0.000000,0.000000,-0.001703,736.1,-0.28,1,12345.6000,0.0004,0.0000,0.0000,0.0000
70,08:30:01:725,-0.0014,-0.0002,-0.0004,-0.00000,-0.00282,0.00000,0.0068,0.000000,0.000000,0.0091,0.0045,-0.0173,0.0000,0.000000,0.000000,0.000000,0.000000,-0.003184,0.000000,0.000000,-0.001698,754.0,-0.03,1,12345.6000,-0.0016,0.0000,0.0000,0.0000
71,08:30:01:750,0.0023,0.0017,-0.0016,-0.00000,-0.00290,0.00000,0.0071,0.000000,0.000000,0.0090,-0.0040,0.0023,0.0000,0.000000,0.000000,0.000000,0.000000,-0.003226,0.000000,0.000000,-0.001694,752.8,0.14,1,12345.6000,0.0092,0.0000,0.0000,0.0000
72,08:30:01:775,-0.0007,0.0008,-0.0005,-0.00000,-0.00298,0.00000,0.0004,0.000000,0.000000,-0.0015,0.0075,0.0331,0.0000,0.000000,0.000000,0.000000,0.000000,-0.003269,0.000000,0.000000,-0.001690,755.8,-0.05,1,12345.6000,0.0041,0.0000,0.0000,0.0000
73,08:30:01:800,0.0032,-0.0013,-0.0001,-0.00000,-0.00306,0.00000,0.0085,0.000000,0.000000,0.0057,0.0099,-0.0062,0.0000,0.000000,0.000000,0.000000,0.000000,-0.003311,0.000000,0.000000,-0.001686,734.6,-0.22,1,12345.6000,-0.0037,0.0000,0.0000,0.0000
74,08:30:01:825,-0.0030,-0.0014,-0.0012,-0.00000,-0.00315,0.00000,0.0128,0.000000,0.000000,0.0088,-0.0130,0.0294,0.0000,0.000000,0.000000,0.000000,0.000000,-0.003353,0.000000,0.000000,-0.001681,726.0,-0.02,1,12345.6000,0.0007,0.0000,0.0000,0.0000
75,08:30:01:850,-0.0022,-0.0010,-0.0028,-0.00000,-0.00323,0.00000,0.0199,0.000000,0.000000,-0.0037,-0.0104,-0.0538,0.0000,0.000000,0.000000,0.000000,0.000000,-0.003395,0.000000,0.000000,-0.001677,759.4,-0.13,1,12345.6000,-0.0018,0.0000,0.0000,0.0000
76,08:30:01:875,-0.0011,0.0012,0.0002,-0.00000,-0.00332,0.00000,0.0218,0.000000,0.000000,-0.0006,0.0061,0.0242,0.0000,0.000000,0.000000,0.000000,0.000000,-0.003437,0.000000,0.000000,-0.001673,772.3,0.07,1,12345.6000,-0.0030,0.0000,0.0000,0.0000
77,08:30:01:900,0.0008,-0.0046,0.0021,-0.00000,-0.00340,0.00000,0.0113,0.000000,0.000000,0.0006,-0.0014,0.0077,0.0000,0.000000,0.000000,0.000000,0.000000,-0.003479,0.000000,0.000000,-0.001669,734.6,0.12,1,12345.6000,-0.0040,0.0000,0.0000,0.0000
78,08:30:01:925,-0.0004,0.0003,-0.0004,-0.00000,-0.00349,0.00000,0.0189,0.000000,0.000000,-0.0088,0.0082,-0.0137,0.0000,0.000000,0.000000,0.000000,0.000000,-0.003520,0.000000,0.000000,-0.001664,773.8,-0.16,1,12345.6000,0.0013,0.0000,0.0000,0.0000
79,08:30:01:950,-0.0010,-0.0018,0.0010,-0.00000,-0.00358,0.00000,0.0146,0.000000,0.000000,0.0035,0.0019,0.0098,0.0000,0.000000,0.000000,0.000000,0.000000,-0.003562,0.000000,0.000000,-0.001660,754.3,-0.11,1,12345.6000,-0.0020,0.0000,0.0000,0.0000
80,08:30:01:975,0.0028,0.0004,0.0015,-0.00000,-0.00367,0.00000,0.0106,0.000000,0.000000,0.0082,0.0055,-0.0458,0.0000,0.000000,0.000000,0.000000,0.000000,-0.003603,0.000000,0.000000,-0.001656,749.9,0.11,1,12345.6000,0.0029,0.0000,0.0000,0.0000
81,08:30:02:000,0.0030,0.0007,-0.0019,-0.00000,-0.00376,0.00000,0.0114,0.000000,0.000000,-0.0012,-0.0060,-0.0036,0.0000,0.000000,0.000000,0.000000,0.000000,-0.003645,0.000000,0.000000,-0.001651,744.0,-0.13,1,12345.6000,0.0030,0.0000,0.0000,0.0000
82,08:30:02:025,-0.0008,-0.0033,-0.0005,-0.00000,-0.00385,0.00000,0.0182,0.000000,0.000000,0.0027,0.0027,0.0030,0.0000,0.000000,0.000000,0.000000,0.000000,-0.003686,0.000000,0.000000,-0.001647,729.2,-0.16,1,12345.6000,0.0041,0.0000,0.0000,0.0000
83,08:30:02:050,-0.0034,-0.0005,-0.0013,-0.00000,-0.00394,0.00000,0.0234,0.000000,0.000000,0.0112,0.0027,0.0276,0.0000,0.000000,0.000000,0.000000,0.000000,-0.003727,0.000000,0.000000,-0.001643,764.8,-0.18,1,12345.6000,-0.0026,0.0000,0.0000,0.0000
84,08:30:02:075,-0.0043,0.0003,-0.0008,-0.00000,-0.00404,0.00000,0.0279,0.000000,0.000000,-0.0032,-0.0055,-0.0153,0.0000,0.000000,0.000000,0.000000,0.000000,-0.003768,0.000000,0.000000,-0.001639,738.4,0.05,1,12345.6000,0.0014,0.0000,0.0000,0.0000
85,08:30:02:100,0.0005,0.0002,0.0017,-0.00000,-0.00413,0.00000,0.0262,0.000000,0.000000,0.0029,0.0080,-0.0078,0.0000,0.000000,0.000000,0.000000,0.000000,-0.003809,0.000000,0.000000,-0.001634,738.3,0.05,1,12345.6000,0.0019,0.0000,0.0000,0.0000
86,08:30:02:125,0.0013,-0.0002,0.0002,-0.00000,-0.00423,0.00000,0.0245,0.000000,0.000000,-0.0046,-0.0152,-0.0107,0.0000,0.000000,0.000000,0.000000,0.000000,-0.003850,0.000000,0.000000,-0.001630,764.9,-0.10,1,12345.6000,-0.0014,0.0000,0.0000,0.0000
87,08:30:02:150,0.0001,-0.0024,0.0008,-0.00000,-0.00432,0.00000,0.0262,0.000000,0.000000,-0.0048,0.0017,0.0194,0.0000,0.000000,0.000000,0.000000,0.000000,-0.003890,0.000000,0.000000,-0.001626,721.8,0.00,1,12345.6000,-0.0023,0.0000,0.0000,0.0000
88,08:30:02:175,-0.0001,-0.0021,-0.0000,-0.00000,-0.00442,0.00000,0.0255,0.000000,0.000000,0.0027,-0.0104,0.0012,0.0000,0.000000,0.000000,0.000000,0.000000,-0.003931,0.000000,0.000000,-0.001622,727.1,0.23,1,12345.6000,0.0048,0.0000,0.0000,0.0000
89,08:30:02:200,-0.0016,-0.0028,-0.0012,-0.00000,-0.00452,0.00000,0.0298,0.000000,0.000000,0.0019,-0.0082,-0.0177,0.0000,0.000000,0.000000,0.000000,0.000000,-0.003971,0.000000,0.000000,-0.001617,749.7,-0.15,1,12345.6000,0.0007,0.0000,0.0000,0.0000
90,08:30:02:225,0.0013,0.0011,0.0007,-0.00000,-0.00462,0.00000,0.0339,0.000000,0.000000,0.0044,0.0079,0.0080,0.0000,0.000000,0.000000,0.000000,0.000000,-0.004012,0.000000,0.000000,-0.001613,754.4,-0.29,1,12345.6000,0.0019,0.0000,0.0000,0.0000
91,08:30:02:250,0.0034,-0.0002,0.0013,-0.00000,-0.00472,0.00000,0.0367,0.000000,0.000000,0.0006,-0.0088,0.0045,0.0000,0.000000,0.000000,0.000000,0.000000,-0.004052,0.000000,0.000000,-0.001609,757.3,0.07,1,12345.6000,-0.0025,0.0000,0.0000,0.0000
92,08:30:02:275,-0.0044,-0.0001,0.0003,-0.00000,-0.00482,0.00000,0.0240,0.000000,0.000000,0.0037,-0.0091,0.0188,0.0000,0.000000,0.000000,0.000000,0.000000,-0.004092,0.000000,0.000000,-0.001604,745.5,-0.02,1,12345.6000,-0.0037,0.0000,0.0000,0.0000
93,08:30:02:300,-0.0002,-0.0034,0.0005,-0.00000,-0.00493,0.00000,0.0246,0.000000,0.000000,0.0133,0.0046,-0.0092,0.0000,0.000000,0.000000,0.000000,0.000000,-0.004132,0.000000,0.000000,-0.001600,788.0,-0.11,1,12345.6000,-0.0017,0.0000,0.0000,0.0000
94,08:30:02:325,-0.0019,-0.0001,-0.0012,-0.00000,-0.00503,0.00000,0.0240,0.000000,0.000000,0.0085,-0.0089,-0.0059,0.0000,0.000000,0.000000,0.000000,0.000000,-0.004172,0.000000,0.000000,-0.001596,746.6,0.10,1,12345.6000,-0.0004,0.0000,0.0000,0.0000
95,08:30:02:350,-0.0030,0.0013,0.0007,-0.00000,-0.00513,0.00000,0.0247,0.000000,0.000000,0.0027,0.0081,-0.0078,0.0000,0.000000,0.000000,0.000000,0.000000,-0.004212,0.000000,0.000000,-0.001592,746.5,0.13,1,12345.6000,-0.0032,0.0000,0.0000,0.0000
96,08:30:02:375,-0.0023,-0.0037,0.0013,-0.00000,-0.00524,0.00000,0.0209,0.000000,0.000000,0.0040,0.0052,-0.0266,0.0000,0.000000,0.000000,0.000000,0.000000,-0.004252,0.000000,0.000000,-0.001587,738.0,-0.33,1,12345.6000,-0.0000,0.0000,0.0000,0.0000
97,08:30:02:400,0.0008,-0.0011,0.0004,-0.00000,-0.00535,0.00000,0.0142,0.000000,0.000000,-0.0024,-0.0062,0.0064,0.0000,0.000000,0.000000,0.000000,0.000000,-0.004292,0.000000,0.000000,-0.001583,751.9,-0.10,1,12345.6000,-0.0051,0.0000,0.0000,0.0000
98,08:30:02:425,0.0008,-0.0031,-0.0018,-0.00000,-0.00545,0.00000,0.0165,0.000000,0.000000,-0.0013,0.0078,0.0099,0.0000,0.000000,0.000000,0.000000,0.000000,-0.004331,0.000000,0.000000,-0.001579,759.2,0.35,1,12345.6000,-0.0034,0.0000,0.0000,0.0000
99,08:30:02:450,0.0029,-0.0008,0.0016,-0.00000,-0.00556,0.00000,0.0146,0.000000,0.000000,0.0039,-0.0155,0.0029,0.0000,0.000000,0.000000,0.000000,0.000000,-0.004370,0.000000,0.000000,-0.001575,768.1,0.09,1,12345.6000,0.0020,0.0000,0.0000,0.0000
100,08:30:02:475,0.0000,-0.0018,-0.0009,-0.00000,-0.00567,0.00000,0.0175,0.000000,0.000000,0.0007,0.0038,-0.0001,0.0000,0.000000,0.000000,0.000000,0.000000,-0.004410,0.000000,0.000000,-0.001570,727.7,0.10,1,12345.6000,0.0018,0.0000,0.0000,0.0000
101,08:30:02:500,-0.0035,0.0008,0.0004,-0.00000,-0.00578,0.00000,0.0141,0.000000,0.000000,0.0063,-0.0100,-0.0247,0.0000,0.000000,0.000000,0.000000,0.000000,-0.004449,0.000000,0.000000,-0.001566,746.3,0.18,1,12345.6000,-0.0012,0.0000,0.0000,0.0000
102,08:30:02:525,-0.0005,0.0003,0.0010,-0.00000,-0.00590,0.00000,0.0211,0.000000,0.000000,0.0101,-0.0042,-0.0016,0.0000,0.000000,0.000000,0.000000,0.000000,-0.004488,0.000000,0.000000,-0.001562,756.7,0.00,1,12345.6000,-0.0031,0.0000,0.0000,0.0000
103,08:30:02:550,-0.0028,0.0026,0.0011,-0.00000,-0.00601,0.00000,0.0260,0.000000,0.000000,-0.0008,-0.0037,-0.0027,0.0000,0.000000,0.000000,0.000000,0.000000,-0.004527,0.000000,0.000000,-0.001558,758.8,0.12,1,12345.6000,-0.0031,0.0000,0.0000,0.0000
104,08:30:02:575,-0.0024,-0.0001,-0.0018,-0.00000,-0.00612,0.00000,0.0274,0.000000,0.000000,-0.0161,0.0103,-0.0073,0.0000,0.000000,0.000000,0.000000,0.000000,-0.004566,0.000000,0.000000,-0.001553,750.1,0.11,1,12345.6000,-0.0011,0.0000,0.0000,0.0000
105,08:30:02:600,0.0012,0.0007,0.0001,-0.00000,-0.00624,0.00000,0.0263,0.000000,0.000000,0.0163,-0.0040,-0.0059,0.0000,0.000000,0.000000,0.000000,0.000000,-0.004605,0.000000,0.000000,-0.001549,758.1,0.08,1,12345.6000,0.0019,0.0000,0.0000,0.0000
106,08:30:02:625,0.0004,-0.0011,0.0001,-0.00000,-0.00635,0.00000,0.0305,0.000000,0.000000,-0.0052,-0.0006,0.0123,0.0000,0.000000,0.000000,0.000000,0.000000,-0.004643,0.000000,0.000000,-0.001545,737.9,-0.05,1,12345.6000,0.0028,0.0000,0.0000,0.0000
107,08:30:02:650,0.0012,-0.0022,0.0014,-0.00000,-0.00647,0.00000,0.0323,0.000000,0.000000,0.0016,-0.0035,0.0308,0.0000,0.000000,0.000000,0.000000,0.000000,-0.004682,0.000000,0.000000,-0.001540,773.4,0.03,1,12345.6000,-0.0015,0.0000,0.0000,0.0000
108,08:30:02:675,-0.0007,0.0017,0.0005,-0.00000,-0.00659,0.00000,0.0334,0.000000,0.000000,0.0058,-0.0079,0.0082,0.0000,0.000000,0.000000,0.000000,0.000000,-0.004720,0.000000,0.000000,-0.001536,764.9,-0.09,1,12345.6000,-0.0035,0.0000,0.0000,0.0000
109,08:30:02:700,0.0016,0.0025,0.0014,-0.00000,-0.00670,0.00000,0.0386,0.000000,0.000000,0.0113,-0.0082,0.0054,0.0000,0.000000,0.000000,0.000000,0.000000,-0.004759,0.000000,0.000000,-0.001532,729.8,0.00,1,12345.6000,0.0008,0.0000,0.0000,0.0000
110,08:30:02:725,-0.0008,0.0014,0.0005,-0.00000,-0.00682,0.00000,0.0456,0.000000,0.000000,0.0144,0.0025,0.0032,0.0000,0.000000,0.000000,0.000000,0.000000,-0.004797,0.000000,0.000000,-0.001528,733.9,-0.18,1,12345.6000,-0.0025,0.0000,0.0000,0.0000
111,08:30:02:750,0.0022,0.0003,-0.0001,-0.00000,-0.00694,0.00000,0.0392,0.000000,0.000000,-0.0029,-0.0002,-0.0300,0.0000,0.000000,0.000000,0.000000,0.000000,-0.004835,0.000000,0.000000,-0.001523,734.3,-0.12,1,12345.6000,-0.0016,0.0000,0.0000,0.0000
112,08:30:02:775,0.0007,-0.0019,0.0002,-0.00000,-0.00707,0.00000,0.0338,0.000000,0.000000,0.0095,0.0061,0.0035,0.0000,0.000000,0.000000,0.000000,0.000000,-0.004873,0.000000,0.000000,-0.001519,760.2,-0.04,1,12345.6000,0.0040,0.0000,0.0000,0.0000
113,08:30:02:800,-0.0004,0.0023,0.0015,-0.00000,-0.00719,0.00000,0.0298,0.000000,0.000000,0.0016,-0.0019,-0.0009,0.0000,0.000000,0.000000,0.000000,0.000000,-0.004911,0.000000,0.000000,-0.001515,730.7,-0.14,1,12345.6000,0.0025,0.0000,0.0000,0.0000
114,08:30:02:825,0.0004,0.0012,-0.0013,-0.00000,-0.00731,0.00000,0.0222,0.000000,0.000000,0.0219,-0.0017,0.0438,0.0000,0.000000,0.000000,0.000000,0.000000,-0.004949,0.000000,0.000000,-0.001511,745.0,-0.08,1,12345.6000,0.0005,0.0000,0.0000,0.0000
115,08:30:02:850,-0.0000,0.0040,0.0009,-0.00000,-0.00744,0.00000,0.0218,0.000000,0.000000,0.0088,0.0061,-0.0012,0.0000,0.000000,0.000000,0.000000,0.000000,-0.004987,0.000000,0.000000,-0.001506,756.8,-0.02,1,12345.6000,-0.0038,0.0000,0.0000,0.0000
116,08:30:02:875,0.0032,-0.0023,-0.0006,-0.00000,-0.00756,0.00000,0.0248,0.000000,0.000000,-0.0014,-0.0030,0.0046,0.0000,0.000000,0.000000,0.000000,0.000000,-0.005024,0.000000,0.000000,-0.001502,749.0,0.06,1,12345.6000,0.0006,0.0000,0.0000,0.0000
117,08:30:02:900,0.0005,0.0017,-0.0008,-0.00000,-0.00769,0.00000,0.0246,0.000000,0.000000,-0.0063,-0.0115,0.0026,0.0000,0.000000,0.000000,0.000000,0.000000,-0.005062,0.000000,0.000000,-0.001498,753.9,0.14,1,12345.6000,0.0032,0.0000,0.0000,0.0000
118,08:30:02:925,-0.0000,0.0011,0.0010,-0.00000,-0.00781,0.00000,0.0218,0.000000,0.000000,-0.0210,0.0068,-0.0259,0.0000,0.000000,0.000000,0.000000,0.000000,-0.005099,0.000000,0.000000,-0.001493,734.0,-0.07,1,12345.6000,-0.0011,0.0000,0.0000,0.0000
119,08:30:02:950,-0.0005,-0.0007,-0.0009,-0.00000,-0.00794,0.00000,0.0274,0.000000,0.000000,0.0054,-0.0054,0.0182,0.0000,0.000000,0.000000,0.000000,0.000000,-0.005136,0.000000,-0.287922,-0.001489,758.9,0.20,1,12345.6000,0.0041,0.0000,0.0000,0.0000
120,08:30:02:975,0.0017,0.0027,0.0004,-0.00000,-0.00807,0.00000,0.0280,0.000000,0.000000,0.0081,0.0005,0.0138,0.0000,0.000000,0.000000,0.000000,-0.014396,-0.005174,0.000000,-0.585252,-0.001485,740.8,0.14,1,12345.6000,0.0039,0.0000,0.0000,0.0000
121,08:30:03:000,0.0014,0.0008,-0.0005,-0.00072,-0.00820,0.00000,0.0296,0.000000,0.000000,0.0659,-0.0050,0.0183,0.0000,0.000000,0.000000,0.000000,-0.029263,-0.005211,0.000000,-0.028191,-0.001481,745.1,0.08,1,12345.6000,0.0050,0.0000,0.0000,0.0000
122,08:30:03:025,-0.0005,-0.0019,-0.0024,-0.00146,-0.00833,0.00000,0.0353,0.000000,0.000000,0.1031,-0.0078,-0.0176,0.0030,0.000000,0.000000,0.000000,-0.015806,-0.005248,0.000000,0.547750,-0.001476,753.6,0.03,1,12345.6000,0.0009,0.0010,0.0000,0.0000
123,08:30:03:050,-0.0022,-0.0002,0.0005,-0.00151,-0.00846,0.00000,0.0346,0.000000,0.000000,0.1158,-0.0152,0.0240,0.0061,0.000000,0.000000,0.000000,-0.001875,-0.005284,0.000000,0.278741,-0.001472,751.5,0.07,1,12345.6000,0.0018,0.0020,0.0000,0.0000
124,08:30:03:075,-0.0016,-0.0019,0.0001,-0.00156,-0.00860,0.00000,0.0448,0.000000,0.000000,0.1336,0.0027,-0.0190,0.0093,0.000000,0.000000,0.000000,-0.001869,-0.005321,0.000000,0.000260,-0.001468,750.4,0.21,1,12345.6000,0.0042,0.0030,0.0000,0.0000
125,08:30:03:100,0.0001,-0.0009,-0.0019,-0.00160,-0.00873,0.00000,0.0424,0.000000,0.000000,0.1479,-0.0272,0.0110,0.0126,0.000000,0.000000,0.000000,-0.001862,-0.005358,0.000000,0.000260,-0.001464,738.7,0.23,1,12345.6000,0.0013,0.0040,0.0000,0.0000
126,08:30:03:125,0.0035,0.0014,-0.0007,-0.00165,-0.00886,0.00000,0.0523,0.000000,0.000000,0.1371,0.0104,0.0325,0.0160,0.000000,0.000000,0.000000,-0.001856,-0.005394,0.000000,0.000260,-0.001459,745.5,0.26,1,12345.6000,-0.0015,0.0050,0.0000,0.0000
127,08:30:03:150,0.0007,0.0020,-0.0018,-0.00170,-0.00900,0.00000,0.0473,0.000000,0.000000,0.1501,0.0083,-0.0151,0.0195,0.000000,0.000000,0.000000,-0.001849,-0.005431,0.000000,0.000260,-0.001455,750.0,0.08,1,12345.6000,-0.0013,0.0060,0.0000,0.0000
128,08:30:03:175,0.0005,0.0004,0.0007,-0.00174,-0.00913,0.00000,0.0497,0.000000,0.000000,0.1369,-0.0073,-0.0114,0.0230,0.000000,0.000000,0.000000,-0.001843,-0.005467,0.000000,0.000260,-0.001451,729.4,0.17,1,12345.6000,0.0007,0.0070,0.0000,0.0000
129,08:30:03:200,-0.0013,-0.0015,0.0014,-0.00179,-0.00927,0.00000,0.0463,0.000000,0.000000,0.1507,0.0127,0.0011,0.0267,0.000000,0.000000,0.000000,-0.001836,-0.005503,0.000000,0.000260,-0.001446,743.1,0.30,1,12345.6000,-0.0039,0.0080,0.0000,0.0000
130,08:30:03:225,0.0059,0.0007,0.0008,-0.00183,-0.00941,0.00000,0.0518,0.000000,0.000000,0.1507,0.0165,-0.0110,0.0305,0.000000,0.000000,0.000000,-0.001830,-0.005539,0.000000,0.000260,-0.001442,755.8,0.02,1,12345.6000,-0.0004,0.0090,0.0000,0.0000
131,08:30:03:250,0.0048,0.0014,0.0010,-0.00188,-0.00955,0.00000,0.0493,0.000000,0.000000,0.1662,-0.0022,-0.0319,0.0344,0.000000,0.000000,0.000000,-0.001823,-0.005575,0.000000,0.000260,-0.001438,730.8,0.08,1,12345.6000,0.0033,0.0100,0.0000,0.0000
132,08:30:03:275,0.0061,-0.0040,-0.0005,-0.00193,-0.00969,0.00000,0.0506,0.000000,0.000000,0.1561,0.0033,0.0097,0.0383,0.000000,0.000000,0.000000,-0.001817,-0.005611,0.000000,0.000260,-0.001434,767.3,0.14,1,12345.6000,-0.0066,0.0110,0.0000,0.0000
133,08:30:03:300,0.0074,0.0002,0.0005,-0.00197,-0.00983,0.00000,0.0472,0.000000,0.000000,0.1776,0.0011,-0.0189,0.0424,0.000000,0.000000,0.000000,-0.001810,-0.005647,0.000000,0.000260,-0.001429,769.0,0.29,1,12345.6000,0.0046,0.0120,0.0000,0.0000
134,08:30:03:325,0.0062,-0.0004,-0.0000,-0.00202,-0.00997,0.00000,0.0517,0.000000,0.000000,0.1655,0.0121,0.0108,0.0465,0.000000,0.000000,0.000000,-0.001804,-0.005683,0.000000,0.000260,-0.001425,731.3,0.30,1,12345.6000,0.0034,0.0130,0.0000,0.0000
135,08:30:03:350,0.0079,0.0018,0.0002,-0.00206,-0.01011,0.00000,0.0483,0.000000,0.000000,0.1632,-0.0111,-0.0197,0.0508,0.000000,0.000000,0.000000,-0.001797,-0.005718,0.000000,0.000260,-0.001421,770.4,0.15,1,12345.6000,-0.0014,0.0140,0.0000,0.0000
136,08:30:03:375,0.0120,0.0007,0.0010,-0.00211,-0.01026,0.00000,0.0565,0.000000,0.000000,0.1672,-0.0018,0.0396,0.0551,0.000000,0.000000,0.000000,-0.001791,-0.005754,0.000000,0.000260,-0.001417,747.8,-0.03,1,12345.6000,0.0016,0.0150,0.0000,0.0000
137,08:30:03:400,0.0107,0.0009,0.0012,-0.00215,-0.01040,0.00000,0.0514,0.000000,0.000000,0.1742,0.0074,-0.0115,0.0596,0.000000,0.000000,0.000000,-0.001784,-0.005789,0.000000,0.000260,-0.001412,756.3,0.25,1,12345.6000,0.0000,0.0160,0.0000,0.0000
138,08:30:03:425,0.0130,-0.0011,-0.0004,-0.00219,-0.01055,0.00000,0.0445,0.000000,0.000000,0.1859,0.0065,-0.0015,0.0641,0.000000,0.000000,0.000000,-0.001778,-0.005824,0.000000,0.000260,-0.001408,742.6,0.09,1,12345.6000,0.0037,0.0170,0.0000,0.0000
139,08:30:03:450,0.0152,-0.0001,-0.0014,-0.00224,-0.01069,0.00000,0.0491,0.000000,0.000000,0.1817,-0.0003,0.0177,0.0687,0.000000,0.000000,0.000000,-0.001771,-0.005860,0.000000,0.000260,-0.001404,763.8,0.02,1,12345.6000,0.0029,0.0180,0.0000,0.0000
140,08:30:03:475,0.0164,0.0017,-0.0002,-0.00228,-0.01084,0.00000,0.0460,0.000000,0.000000,0.1837,0.0111,-0.0196,0.0734,0.000000,0.000000,0.000000,-0.001765,-0.005895,0.000000,0.000260,-0.001399,756.1,0.07,1,12345.6000,-0.0042,0.0190,0.0000,0.0000
141,08:30:03:500,0.0167,-0.0003,-0.0002,-0.00233,-0.01099,0.00000,0.0459,0.000000,0.000000,0.2011,0.0019,0.0065,0.0782,0.000000,0.000000,0.000000,-0.001758,-0.005930,0.000000,0.000260,-0.001395,737.8,0.33,1,12345.6000,0.0018,0.0200,0.0000,0.0000
142,08:30:03:525,0.0189,0.0002,0.0003,-0.00237,-0.01114,0.00000,0.0441,0.000000,0.000000,0.1719,0.0009,0.0243,0.0831,0.000000,0.000000,0.000000,-0.001752,-0.005964,0.000000,0.000260,-0.001391,732.5,0.50,1,12345.6000,-0.0006,0.0210,0.0000,0.0000
143,08:30:03:550,0.0226,-0.0033,0.0008,-0.00242,-0.01129,0.00000,0.0374,0.000000,0.000000,0.1978,0.0056,-0.0303,0.0881,0.000000,0.000000,0.000000,-0.001745,-0.005999,0.000000,0.000260,-0.001387,728.1,0.32,1,12345.6000,0.0002,0.0220,0.0000,0.0000
144,08:30:03:575,0.0248,-0.0004,-0.0019,-0.00246,-0.01144,0.00000,0.0369,0.000000,0.000000,0.1942,-0.0005,0.0142,0.0932,0.000000,0.000000,0.000000,-0.001739,-0.006034,0.000000,0.000260,-0.001382,752.8,0.37,1,12345.6000,-0.0022,0.0230,0.0000,0.0000
145,08:30:03:600,0.0279,-0.0043,-0.0007,-0.00250,-0.01159,0.00000,0.0431,0.000000,0.000000,0.2016,0.0004,0.0062,0.0983,0.000000,0.000000,0.000000,-0.001732,-0.006068,0.000000,0.000260,-0.001378,758.6,0.53,1,12345.6000,0.0052,0.0240,0.0000,0.0000
146,08:30:03:625,0.0291,-0.0013,-0.0010,-0.00255,-0.01174,0.00000,0.0480,0.000000,0.000000,0.2141,-0.0063,0.0220,0.1036,0.000000,0.000000,0.000000,-0.001726,-0.006103,0.000000,0.000260,-0.001374,759.8,0.14,1,12345.6000,0.0031,0.0250,0.0000,0.0000
147,08:30:03:650,0.0318,-0.0002,0.0013,-0.00259,-0.01189,0.00000,0.0490,0.000000,0.000000,0.2141,0.0235,-0.0188,0.1089,0.000000,0.000000,0.000000,-0.001719,-0.006137,0.000000,0.000260,-0.001370,748.2,0.47,1,12345.6000,-0.0022,0.0260,0.0000,0.0000
148,08:30:03:675,0.0324,0.0012,-0.0002,-0.00263,-0.01205,0.00000,0.0544,0.000000,0.000000,0.2169,-0.0038,-0.0236,0.1144,0.000000,0.000000,0.000000,-0.001713,-0.006171,0.000000,0.000260,-0.001365,732.6,0.41,1,12345.6000,-0.0040,0.0270,0.0000,0.0000
149,08:30:03:700,0.0350,-0.0024,-0.0005,-0.00267,-0.01220,0.00000,0.0490,0.000000,0.000000,0.2324,0.0058,0.0187,0.1199,0.000000,0.000000,0.000000,-0.001706,-0.006205,0.000000,0.000260,-0.001361,739.8,0.52,1,12345.6000,-0.0012,0.0280,0.0000,0.0000
150,08:30:03:725,0.0408,0.0003,0.0005,-0.00272,-0.01236,0.00000,0.0472,0.000000,0.000000,0.2263,0.0153,-0.0049,0.1255,0.000000,0.000000,0.000000,-0.001700,-0.006239,0.000000,0.000260,-0.001357,767.3,0.38,1,12345.6000,0.0013,0.0290,0.0000,0.0000
151,08:30:03:750,0.0412,0.0025,-0.0006,-0.00276,-0.01251,0.00000,0.0490,0.000000,0.000000,0.2444,-0.0107,-0.0042,0.1312,0.000000,0.000000,0.000000,-0.001693,-0.006273,0.000000,0.000260,-0.001352,742.7,0.35,1,12345.6000,0.0007,0.0300,0.0000,0.0000
152,08:30:03:775,0.0456,-0.0018,-0.0000,-0.00280,-0.01267,0.00000,0.0482,0.000000,0.000000,0.2391,0.0049,0.0156,0.1370,0.000000,0.000000,0.000000,-0.001687,-0.006307,0.000000,0.000260,-0.001348,752.2,0.51,1,12345.6000,0.0038,0.0310,0.0000,0.0000
153,08:30:03:800,0.0518,-0.0036,0.0018,-0.00284,-0.01283,0.00000,0.0469,0.000000,0.000000,0.2292,0.0002,-0.0168,0.1429,0.000000,0.000000,0.000000,-0.001680,-0.006340,0.000000,0.000260,-0.001344,733.9,0.76,1,12345.6001,0.0024,0.0320,0.0000,0.0000
154,08:30:03:825,0.0550,-0.0000,0.0018,-0.00289,-0.01299,0.00000,0.0407,0.000000,0.000000,0.2559,0.0144,0.0052,0.1489,0.000000,0.000000,0.000000,-0.001674,-0.006374,0.000000,0.000260,-0.001340,755.0,0.67,1,12345.6001,0.0029,0.0330,0.0000,0.0000
155,08:30:03:850,0.0569,-0.0030,-0.0004,-0.00293,-0.01315,0.00000,0.0302,0.000000,0.000000,0.2461,-0.0073,0.0146,0.1549,0.000000,0.000000,0.000000,-0.001667,-0.006407,0.000000,0.000260,-0.001335,743.1,0.48,1,12345.6001,0.0010,0.0340,0.0000,0.0000
156,08:30:03:875,0.0596,-0.0023,-0.0002,-0.00297,-0.01331,0.00000,0.0342,0.000000,0.000000,0.2624,-0.0060,-0.0133,0.1611,0.000000,0.000000,0.000000,-0.001661,-0.006441,0.000000,0.000260,-0.001331,765.7,0.38,1,12345.6001,-0.0042,0.0350,0.0000,0.0000
157,08:30:03:900,0.0640,0.0011,-0.0006,-0.00301,-0.01347,0.00000,0.0353,0.000000,0.000000,0.2487,-0.0004,0.0458,0.1673,0.000000,0.000000,0.000000,-0.001654,-0.006474,0.000000,0.000260,-0.001327,761.6,0.35,1,12345.6001,-0.0006,0.0360,0.0000,0.0000
158,08:30:03:925,0.0701,0.0029,-0.0019,-0.00305,-0.01363,0.00000,0.0397,0.000000,0.000000,0.2565,-0.0039,0.0075,0.1736,0.000000,0.000000,0.000000,-0.001648,-0.006507,0.000000,0.000260,-0.001323,742.6,0.82,1,12345.6001,0.0032,0.0370,0.0000,0.0000
159,08:30:03:950,0.0727,-0.0029,0.0010,-0.00309,-0.01379,0.00000,0.0374,0.000000,0.000000,0.2612,-0.0037,-0.0207,0.1800,0.000000,0.000000,0.000000,-0.001641,-0.006540,0.000000,0.000260,-0.001318,748.1,0.50,1,12345.6001,-0.0002,0.0380,0.0000,0.0000
160,08:30:03:975,0.0761,-0.0024,0.0024,-0.00313,-0.01396,0.00000,0.0337,0.000000,0.000000,0.2598,0.0162,0.0134,0.1865,0.000000,0.000000,0.000000,-0.001635,-0.006573,0.000000,0.000260,-0.001314,741.7,0.62,1,12345.6001,0.0015,0.0390,0.0000,0.0000
161,08:30:04:000,0.0843,-0.0019,-0.0004,-0.00317,-0.01412,0.00000,0.0337,0.000000,0.000000,0.2747,0.0010,-0.0120,0.1931,0.000000,0.000000,0.000000,-0.001628,-0.006606,0.000000,0.000260,-0.001310,728.7,0.89,1,12345.6001,-0.0010,0.0400,0.0000,0.0000
162,08:30:04:025,0.0871,-0.0022,-0.0008,-0.00321,-0.01429,0.00000,0.0378,0.000000,0.000000,0.2834,-0.0063,0.0144,0.1997,0.000000,0.000000,0.000000,-0.001622,-0.006639,0.000000,0.000260,-0.001306,737.1,0.48,1,12345.6001,-0.0031,0.0410,0.0000,0.0000
163,08:30:04:050,0.0906,0.0027,-0.0003,-0.00326,-0.01445,0.00000,0.0366,0.000000,0.000000,0.2529,-0.0031,0.0184,0.2065,0.000000,0.000000,0.000000,-0.001616,-0.006671,0.000000,0.000260,-0.001301,1067.0,0.97,1,12345.6001,-0.0004,0.0420,0.0000,0.0000
164,08:30:04:075,0.0978,-0.0023,0.0001,-0.00330,-0.01462,0.00000,0.0405,0.000000,0.000000,0.2812,0.0032,-0.0188,0.2133,0.000000,0.000000,0.000000,-0.001609,-0.006704,0.000000,0.000260,-0.001297,1078.0,0.73,1,12345.6001,0.0009,0.0430,0.0000,0.0000
165,08:30:04:100,0.1042,-0.0021,-0.0011,-0.00334,-0.01479,0.00000,0.0353,0.000000,0.000000,0.2708,0.0027,0.0172,0.2202,0.000000,0.000000,0.000000,-0.001603,-0.006736,0.000000,0.000260,-0.001293,1086.1,0.62,1,12345.6001,-0.0020,0.0440,0.0000,0.0000
166,08:30:04:125,0.1057,0.0019,-0.0005,-0.00338,-0.01496,0.00000,0.0344,0.000000,0.000000,0.2606,-0.0046,0.0050,0.2272,0.000000,0.000000,0.000000,-0.001596,-0.006768,0.000000,0.000260,-0.001288,1091.5,0.78,1,12345.6001,-0.0007,0.0450,0.0000,0.0000
167,08:30:04:150,0.1130,-0.0003,0.0010,-0.00342,-0.01513,0.00000,0.0339,0.000000,0.000000,0.2888,-0.0130,0.0130,0.2343,0.000000,0.000000,0.000000,-0.001590,-0.006800,0.000000,0.000260,-0.001284,1114.0,0.73,1,12345.6001,-0.0028,0.0460,0.0000,0.0000
168,08:30:04:175,0.1188,0.0004,0.0001,-0.00346,-0.01530,0.00000,0.0400,0.000000,0.000000,0.2921,-0.0004,0.0435,0.2414,0.000000,0.000000,0.000000,-0.001583,-0.006832,0.000000,0.000260,-0.001280,1115.4,0.94,1,12345.6001,0.0034,0.0470,0.0000,0.0000
169,08:30:04:200,0.1262,-0.0034,0.0013,-0.00349,-0.01547,0.00000,0.0409,0.000000,0.000000,0.2967,-0.0006,0.0021,0.2487,0.000000,0.000000,0.000000,-0.001577,-0.006864,0.000000,0.000260,-0.001276,1132.1,0.80,1,12345.6001,-0.0009,0.0480,0.0000,0.0000
170,08:30:04:225,0.1328,-0.0028,0.0004,-0.00353,-0.01564,0.00000,0.0495,0.000000,0.000000,0.2975,-0.0052,-0.0131,0.2560,0.000000,0.000000,0.000000,-0.001570,-0.006896,0.000000,0.000260,-0.001271,1117.8,0.63,1,12345.6001,0.0044,0.0490,0.0000,0.0000
171,08:30:04:250,0.1368,-0.0039,-0.0011,-0.00357,-0.01581,0.00000,0.0426,0.000000,0.000000,0.3048,0.0102,-0.0210,0.2634,0.000000,0.000000,0.000000,-0.001564,-0.006928,0.000000,0.000260,-0.001267,1106.8,0.92,1,12345.6001,0.0046,0.0500,0.0000,0.0000
172,08:30:04:275,0.1415,-0.0003,-0.0006,-0.00361,-0.01599,0.00000,0.0431,0.000000,0.000000,0.2962,0.0046,-0.0192,0.2709,0.000000,0.000000,0.000000,-0.001557,-0.006960,0.000000,0.000260,-0.001263,1159.5,0.77,1,12345.6002,-0.0002,0.0510,0.0000,0.0000
173,08:30:04:300,0.1533,0.0004,0.0002,-0.00365,-0.01616,0.00000,0.0439,0.000000,0.000000,0.3064,0.0011,-0.0119,0.2784,0.000000,0.000000,0.000000,-0.001551,-0.006991,0.000000,0.000260,-0.001259,1012.8,1.03,2,12345.6002,-0.0030,0.0520,0.0000,0.0000
174,08:30:04:325,0.1560,-0.0034,-0.0011,-0.00369,-0.01634,0.00000,0.0469,0.000000,0.000000,0.3131,-0.0029,0.0087,0.2861,0.000000,0.000000,0.000000,-0.001544,-0.007023,0.000000,0.000260,-0.001254,1031.9,0.85,2,12345.6002,-0.0063,0.0530,0.0000,0.0000
175,08:30:04:350,0.1659,-0.0030,-0.0013,-0.00373,-0.01651,0.00000,0.0427,0.000000,0.000000,0.3215,0.0139,0.0021,0.2938,0.000000,0.000000,0.000000,-0.001538,-0.007054,0.000000,0.000260,-0.001250,1038.1,0.98,2,12345.6002,-0.0044,0.0540,0.0000,0.0000
176,08:30:04:375,0.1725,-0.0030,-0.0012,-0.00377,-0.01669,0.00000,0.0510,0.000000,0.000000,0.3142,-0.0092,0.0239,0.3016,0.000000,0.000000,0.000000,-0.001531,-0.007085,0.000000,0.000260,-0.001246,1064.1,1.11,2,12345.6002,-0.0041,0.0550,0.0000,0.0000
177,08:30:04:400,0.1806,-0.0056,0.0005,-0.00380,-0.01687,0.00000,0.0509,0.000000,0.000000,0.3154,-0.0040,-0.0066,0.3095,0.000000,0.000000,0.000000,-0.001525,-0.007116,0.000000,0.000260,-0.001241,1059.5,1.08,2,12345.6002,0.0041,0.0560,0.0000,0.0000
178,08:30:04:425,0.1913,-0.0040,-0.0004,-0.00384,-0.01705,0.00000,0.0453,0.000000,0.000000,0.3198,-0.0036,0.0261,0.3175,0.000000,0.000000,0.000000,-0.001518,-0.007147,0.000000,0.000260,-0.001237,1064.4,1.18,2,12345.6002,0.0003,0.0570,0.0000,0.0000
179,08:30:04:450,0.2020,-0.0012,0.0012,-0.00388,-0.01723,0.00000,0.0451,0.000000,0.000000,0.3139,0.0024,-0.0058,0.3255,0.000000,0.000000,0.000000,-0.001512,-0.007178,0.000000,0.000260,-0.001233,1078.4,1.27,2,12345.6002,0.0012,0.0580,0.0000,0.0000
180,08:30:04:475,0.2008,-0.0047,-0.0009,-0.00392,-0.01741,0.00000,0.0434,0.000000,0.000000,0.3327,0.0053,0.0567,0.3336,0.000000,0.000000,0.000000,-0.001505,-0.007209,0.000000,0.000260,-0.001229,1081.1,1.03,2,12345.6002,-0.0067,0.0590,0.0000,0.0000
181,08:30:04:500,0.2144,-0.0029,-0.0025,-0.00396,-0.01759,0.00000,0.0571,0.000000,0.000000,0.3180,-0.0107,0.0215,0.3418,0.000000,0.000000,0.000000,-0.001499,-0.007239,0.000000,0.000260,-0.001224,1080.3,1.22,2,12345.6002,-0.0036,0.0600,0.0000,0.0000
182,08:30:04:525,0.2206,-0.0058,-0.0001,-0.00399,-0.01777,0.00000,0.0622,0.000000,0.000000,0.3359,-0.0055,-0.0240,0.3501,0.000000,0.000000,0.000000,-0.001492,-0.007270,0.000000,0.000260,-0.001220,1103.2,0.76,2,12345.6002,0.0027,0.0610,0.0000,0.0000
183,08:30:04:550,0.2318,-0.0037,0.0016,-0.00403,-0.01795,0.00000,0.0623,0.000000,0.000000,0.3366,0.0036,-0.0229,0.3585,0.000000,0.000000,0.000000,-0.001486,-0.007300,0.000000,0.000260,-0.001216,1088.9,1.33,2,12345.6002,0.0009,0.0620,0.0000,0.0000
184,08:30:04:575,0.2406,-0.0047,0.0000,-0.00407,-0.01813,0.00000,0.0615,0.000000,0.000000,0.3266,-0.0053,0.0025,0.3669,0.000000,0.000000,0.000000,-0.001479,-0.007331,0.000000,0.000260,-0.001212,1110.9,1.28,2,12345.6002,-0.0004,0.0630,0.0000,0.0000
185,08:30:04:600,0.2507,-0.0061,-0.0014,-0.00410,-0.01832,0.00000,0.0661,0.000000,0.000000,0.3301,-0.0032,-0.0005,0.3754,0.000000,0.000000,0.000000,-0.001473,-0.007361,0.000000,0.000260,-0.001207,1099.9,1.20,2,12345.6003,0.0017,0.0640,0.0000,0.0000
186,08:30:04:625,0.2578,-0.0023,-0.0016,-0.00414,-0.01850,0.00000,0.0709,0.000000,0.000000,0.3383,0.0014,0.0110,0.3840,0.000000,0.000000,0.000000,-0.001466,-0.007391,0.000000,0.000260,-0.001203,1125.2,1.43,2,12345.6003,0.0049,0.0650,0.0000,0.0000
187,08:30:04:650,0.2650,-0.0024,0.0012,-0.00418,-0.01869,0.00000,0.0561,0.000000,0.000000,0.3454,-0.0078,0.0089,0.3927,0.000000,0.000000,0.000000,-0.001460,-0.007421,0.000000,0.000260,-0.001199,1133.0,1.59,2,12345.6003,-0.0007,0.0660,0.0000,0.0000
188,08:30:04:675,0.2785,-0.0062,-0.0008,-0.00421,-0.01887,0.00000,0.0592,0.000000,0.000000,0.3630,0.0022,-0.0023,0.4014,0.000000,0.000000,0.000000,-0.001453,-0.007451,0.000000,0.000260,-0.001194,1155.7,1.37,2,12345.6003,0.0002,0.0670,0.0000,0.0000
189,08:30:04:700,0.2869,-0.0049,0.0015,-0.00425,-0.01906,0.00000,0.0591,0.000000,0.000000,0.3533,0.0049,-0.0164,0.4102,0.000000,0.000000,0.000000,-0.001447,-0.007481,0.000000,0.000260,-0.001190,1131.3,1.34,2,12345.6003,0.0006,0.0680,0.0000,0.0000
190,08:30:04:725,0.2965,-0.0045,0.0007,-0.00429,-0.01925,0.00000,0.0524,0.000000,0.000000,0.3616,0.0003,-0.0311,0.4191,0.000000,0.000000,0.000000,-0.001440,-0.007511,0.000000,0.000260,-0.001186,1149.0,1.53,2,12345.6003,0.0072,0.0690,0.0000,0.0000
191,08:30:04:750,0.3064,-0.0085,-0.0008,-0.00432,-0.01943,0.00000,0.0567,0.000000,0.000000,0.3704,0.0114,-0.0138,0.4281,0.000000,0.000000,0.000000,-0.001434,-0.007540,0.000000,0.000260,-0.001182,1171.3,1.34,2,12345.6003,-0.0063,0.0700,0.0000,0.0000
192,08:30:04:775,0.3201,-0.0078,0.0012,-0.00436,-0.01962,0.00000,0.0677,0.000000,0.000000,0.3718,0.0058,0.0176,0.4372,0.000000,0.000000,0.000000,-0.001427,-0.007570,0.000000,0.000260,-0.001177,1174.6,1.47,2,12345.6003,0.0020,0.0710,0.0000,0.0000
193,08:30:04:800,0.3322,-0.0027,-0.0009,-0.00439,-0.01981,0.00000,0.0703,0.000000,0.000000,0.3661,-0.0003,0.0003,0.4463,0.000000,0.000000,0.000000,-0.001421,-0.007599,0.000000,0.000260,-0.001173,1181.3,1.79,2,12345.6003,-0.0003,0.0720,0.0000,0.0000
194,08:30:04:825,0.3378,-0.0076,-0.0014,-0.00443,-0.02000,0.00000,0.0756,0.000000,0.000000,0.3635,-0.0026,-0.0208,0.4555,0.000000,0.000000,0.000000,-0.001414,-0.007628,0.000000,0.000260,-0.001169,1178.3,1.65,2,12345.6004,0.0017,0.0730,0.0000,0.0000
195,08:30:04:850,0.3528,-0.0032,-0.0009,-0.00446,-0.02019,0.00000,0.0844,0.000000,0.000000,0.3761,0.0140,0.0038,0.4647,0.000000,0.000000,0.000000,-0.001408,-0.007657,0.000000,0.000260,-0.001165,1190.3,1.39,2,12345.6004,-0.0020,0.0740,0.0000,0.0000
196,08:30:04:875,0.3624,-0.0086,0.0008,-0.00450,-0.02039,0.00000,0.0800,0.000000,0.000000,0.3695,-0.0053,0.0025,0.4741,0.000000,0.000000,0.000000,-0.001401,-0.007687,0.000000,0.000260,-0.001160,1217.0,1.44,2,12345.6004,-0.0001,0.0750,0.0000,0.0000
197,08:30:04:900,0.3721,-0.0049,0.0011,-0.00453,-0.02058,0.00000,0.0705,0.000000,0.000000,0.3924,-0.0022,-0.0056,0.4835,0.000000,0.000000,0.000000,-0.001395,-0.007715,0.008428,0.000260,-0.001156,1212.6,1.76,2,12345.6004,0.0021,0.0760,0.0000,0.0000
198,08:30:04:925,0.3874,-0.0070,-0.0004,-0.00457,-0.02077,0.00000,0.0735,0.000000,0.000000,0.3877,-0.2545,0.0114,0.4930,0.000000,0.000000,0.000421,-0.001388,-0.007744,0.008669,0.000260,-0.001152,1225.4,1.90,2,12345.6004,0.0093,0.0770,0.0000,0.0000
199,08:30:04:950,0.3978,-0.0070,-0.0019,-0.00460,-0.02097,0.00002,0.0721,0.000000,0.000000,0.3854,-0.2568,0.0134,0.5025,-0.012563,0.000000,0.000433,-0.001382,-0.007773,-0.007941,0.000260,-0.001147,1229.1,1.57,2,12345.6004,0.0024,0.0780,0.0000,0.0000
200,08:30:04:975,0.4088,-0.0032,-0.0016,-0.00464,-0.02116,0.00002,0.0650,0.000000,0.000000,0.3907,0.0044,-0.0246,0.5121,-0.012804,0.000000,0.000024,-0.001375,-0.007802,-0.008173,0.000260,-0.001143,1227.0,1.91,2,12345.6004,-0.0025,0.0790,0.0000,0.0000
201,08:30:05:000,0.4232,-0.0097,-0.0011,-0.00467,-0.02136,0.00002,0.0644,0.000000,0.000000,0.3908,-0.0118,0.0030,0.5218,-0.013046,0.000000,0.000025,-0.001369,-0.007830,0.000018,0.000260,-0.001139,1256.9,2.08,2,12345.6004,-0.0013,0.0800,0.0000,0.0000
202,08:30:05:025,0.4358,-0.0063,-0.0013,-0.00471,-0.02155,0.00002,0.0678,0.000000,0.000000,0.3893,-0.0166,0.0152,0.5316,-0.013290,0.000000,0.000025,-0.001362,-0.007859,0.000018,0.000260,-0.001135,1261.4,2.20,2,12345.6005,-0.0014,0.0810,0.0000,0.0000
203,08:30:05:050,0.4498,-0.0067,0.0003,-0.00474,-0.02175,0.00002,0.0669,0.000000,0.000000,0.3991,-0.0126,0.0272,0.5415,-0.013536,0.000000,0.000026,-0.001356,-0.007887,0.000019,0.000260,-0.001130,1288.3,2.00,2,12345.6005,-0.0054,0.0820,0.0000,0.0000
204,08:30:05:075,0.4620,-0.0014,0.0019,-0.00477,-0.02195,0.00002,0.0628,0.000000,0.000000,0.3960,-0.0248,0.0221,0.5514,-0.013784,0.000000,0.000026,-0.001349,-0.007915,0.000019,0.000260,-0.001126,1264.0,2.06,2,12345.6005,-0.0010,0.0830,0.0000,0.0000
205,08:30:05:100,0.4777,-0.0105,0.0008,-0.00481,-0.02214,0.00002,0.0614,0.000000,0.000000,0.4162,-0.0160,-0.0381,0.5614,-0.014034,0.000000,0.000027,-0.001343,-0.007943,0.000019,0.000260,-0.001122,1291.3,1.70,2,12345.6005,0.0022,0.0840,0.0000,0.0000
206,08:30:05:125,0.4910,-0.0099,-0.0011,-0.00484,-0.02234,0.00003,0.0612,0.000000,0.000000,0.3980,-0.0010,-0.0237,0.5714,-0.014285,0.000000,0.000027,-0.001337,-0.007971,0.000019,0.000260,-0.001118,1279.0,2.37,2,12345.6005,-0.0038,0.0850,0.0000,0.0000
207,08:30:05:150,0.5075,-0.0074,-0.0007,-0.00488,-0.02254,0.00003,0.0513,0.000000,0.000000,0.4104,-0.0095,0.0124,0.5815,-0.014538,0.000000,0.000028,-0.001330,-0.007999,0.000019,0.000260,-0.001113,1302.8,2.01,2,12345.6005,0.0031,0.0860,0.0000,0.0000
208,08:30:05:175,0.5225,-0.0097,-0.0005,-0.00491,-0.02274,0.00003,0.0505,0.000000,0.000000,0.4028,-0.0051,0.0070,0.5917,-0.014793,0.000000,0.000028,-0.001324,-0.008027,0.000019,0.000260,-0.001109,1320.1,1.99,2,12345.6005,0.0015,0.0870,0.0000,0.0000
209,08:30:05:200,0.5366,-0.0106,0.0004,-0.00494,-0.02294,0.00003,0.0436,0.000000,0.000000,0.4055,-0.0070,0.0035,0.6020,-0.015049,0.000000,0.000029,-0.001317,-0.008055,0.000020,0.000260,-0.001105,1298.8,2.13,2,12345.6006,-0.0022,0.0880,0.0000,0.0000
210,08:30:05:225,0.5507,-0.0081,0.0016,-0.00497,-0.02315,0.00003,0.0468,0.000000,0.000000,0.4002,-0.0210,0.0758,0.6123,-0.015308,0.000000,0.000029,-0.001311,-0.008082,0.000020,0.000260,-0.001101,1326.7,2.43,2,12345.6006,-0.0004,0.0890,0.0000,0.0000
211,08:30:05:250,0.5659,-0.0109,-0.0005,-0.00501,-0.02335,0.00003,0.0388,0.000000,0.000000,0.4206,-0.0002,-0.0048,0.6227,-0.015568,0.000000,0.000030,-0.001304,-0.008110,0.000020,0.000260,-0.001096,1332.5,2.57,2,12345.6006,0.0048,0.0900,0.0000,0.0000
212,08:30:05:275,0.5803,-0.0125,0.0015,-0.00504,-0.02355,0.00003,0.0438,0.000000,0.000000,0.4157,-0.0299,0.0197,0.6332,-0.015829,0.000000,0.000030,-0.001298,-0.008137,0.000020,0.000260,-0.001092,1340.4,2.30,2,12345.6006,0.0022,0.0910,0.0000,0.0000
213,08:30:05:300,0.5962,-0.0096,0.0021,-0.00507,-0.02375,0.00003,0.0416,0.000000,0.000000,0.4313,-0.0132,0.0169,0.6437,-0.016093,0.000000,0.000031,-0.001291,-0.008164,0.000020,0.000260,-0.001088,1360.7,2.47,2,12345.6006,0.0000,0.0920,0.0000,0.0000
214,08:30:05:325,0.6153,-0.0107,-0.0003,-0.00510,-0.02396,0.00003,0.0387,0.000000,0.000000,0.4287,-0.0325,0.0146,0.6543,-0.016358,0.000000,0.000031,-0.001285,-0.008191,0.000020,0.000260,-0.001083,1377.6,2.36,2,12345.6006,-0.0007,0.0930,0.0000,0.0000
215,08:30:05:350,0.6267,-0.0125,-0.0004,-0.00514,-0.02416,0.00003,0.0401,0.000000,0.000000,0.4292,-0.0299,-0.0036,0.6650,-0.016624,0.000000,0.000032,-0.001278,-0.008218,0.000021,0.000260,-0.001079,1374.6,2.24,2,12345.6006,0.0002,0.0940,0.0000,0.0000
216,08:30:05:375,0.6467,-0.0130,-0.0004,-0.00517,-0.02437,0.00003,0.0356,0.000000,0.000000,0.4194,-0.0089,0.0171,0.6757,-0.016893,0.000000,0.000032,-0.001272,-0.008245,0.000021,0.000260,-0.001075,1387.5,2.65,2,12345.6007,-0.0015,0.0950,0.0000,0.0000
217,08:30:05:400,0.6631,-0.0145,0.0001,-0.00520,-0.02458,0.00003,0.0369,0.000000,0.000000,0.4380,-0.0220,-0.0110,0.6865,-0.017163,0.000000,0.000033,-0.001265,-0.008272,0.000021,0.000260,-0.001071,1396.3,2.38,2,12345.6007,-0.0063,0.0960,0.0000,0.0000
218,08:30:05:425,0.6821,-0.0117,-0.0004,-0.00523,-0.02478,0.00003,0.0332,0.000000,0.000000,0.4307,-0.0067,-0.0056,0.6974,-0.017434,0.000000,0.000033,-0.001259,-0.008299,0.000021,0.000260,-0.001066,1404.9,2.74,2,12345.6007,0.0061,0.0970,0.0000,0.0000
219,08:30:05:450,0.6955,-0.0143,0.0009,-0.00526,-0.02499,0.00004,0.0303,0.000000,0.000000,0.4271,-0.0343,-0.0170,0.7083,-0.017708,0.000000,0.000034,-0.001252,-0.008325,0.000021,0.000260,-0.001062,1403.7,2.74,2,12345.6007,0.0005,0.0980,0.0000,0.0000
220,08:30:05:475,0.7161,-0.0155,-0.0015,-0.00529,-0.02520,0.00004,0.0322,0.000000,0.000000,0.4446,-0.0177,0.0019,0.7193,-0.017982,0.000000,0.000034,-0.001246,-0.008352,0.000021,0.000260,-0.001058,1435.5,2.68,2,12345.6007,0.0012,0.0990,0.0000,0.0000
221,08:30:05:500,0.7347,-0.0170,-0.0005,-0.00533,-0.02541,0.00004,0.0264,0.000000,0.000000,0.4337,-0.0269,0.0419,0.7304,-0.018259,0.000000,0.000035,-0.001239,-0.008378,0.000022,0.000260,-0.001054,1437.2,2.90,2,12345.6008,-0.0002,0.1000,0.0000,0.0000
222,08:30:05:525,0.7485,-0.0141,0.0003,-0.00536,-0.02562,0.00004,0.0200,0.000000,0.000000,0.4296,-0.0200,-0.0441,0.7415,-0.018537,0.000000,0.000035,-0.001233,-0.008405,0.000022,0.000260,-0.001049,1448.2,3.00,2,12345.6008,-0.0022,0.1010,0.0000,0.0000
223,08:30:05:550,0.7687,-0.0164,0.0009,-0.00539,-0.02583,0.00004,0.0212,0.000000,0.000000,0.4593,-0.0052,0.0166,0.7527,-0.018817,0.000000,0.000036,-0.001226,-0.008431,0.000022,0.000260,-0.001045,1446.1,2.68,2,12345.6008,-0.0006,0.1020,0.0000,0.0000
224,08:30:05:575,0.7894,-0.0199,0.0022,-0.00542,-0.02604,0.00004,0.0210,0.000000,0.000000,0.4470,-0.0034,-0.0393,0.7639,-0.019098,0.000000,0.000036,-0.001220,-0.008457,0.000022,0.000260,-0.001041,1459.6,2.63,2,12345.6008,-0.0048,0.1030,0.0000,0.0000
225,08:30:05:600,0.8097,-0.0188,-0.0013,-0.00545,-0.02625,0.00004,0.0218,0.000000,0.000000,0.4400,-0.0138,-0.0060,0.7752,-0.019381,0.000000,0.000037,-0.001213,-0.008483,0.000022,0.000260,-0.001036,1472.5,2.51,2,12345.6008,0.0068,0.1040,0.0000,0.0000
226,08:30:05:625,0.8285,-0.0173,-0.0007,-0.00548,-0.02646,0.00004,0.0234,0.000000,0.000000,0.4488,-0.0309,0.0153,0.7866,-0.019666,0.000000,0.000038,-0.001207,-0.008509,0.000022,0.000260,-0.001032,1469.1,3.17,2,12345.6008,-0.0037,0.1050,0.0000,0.0000
227,08:30:05:650,0.8489,-0.0178,-0.0023,-0.00551,-0.02668,0.00004,0.0236,0.000000,0.000000,0.4532,-0.0279,-0.0002,0.7981,-0.019952,0.000000,0.000038,-0.001200,-0.008534,0.000023,0.000260,-0.001028,1477.7,2.81,2,12345.6009,-0.0031,0.1060,0.0000,0.0000
228,08:30:05:675,0.8655,-0.0184,-0.0011,-0.00554,-0.02689,0.00004,0.0265,0.000000,0.000000,0.4706,-0.0172,-0.0244,0.8096,-0.020240,0.000000,0.000039,-0.001194,-0.008560,0.000023,0.000260,-0.001024,1498.8,3.08,2,12345.6009,-0.0013,0.1070,0.0000,0.0000
229,08:30:05:700,0.8847,-0.0192,-0.0018,-0.00557,-0.02711,0.00004,0.0270,0.000000,0.000000,0.4507,-0.0251,-0.0086,0.8211,-0.020529,0.000000,0.000039,-0.001187,-0.008586,0.000023,0.000260,-0.001019,1520.4,2.84,2,12345.6009,0.0039,0.1080,0.0000,0.0000
230,08:30:05:725,0.9086,-0.0220,-0.0005,-0.00560,-0.02732,0.00005,0.0168,0.000000,0.000000,0.4557,-0.0136,0.0166,0.8328,-0.020819,0.000000,0.000040,-0.001181,-0.008611,0.000023,0.000260,-0.001015,1519.0,3.23,2,12345.6009,0.0000,0.1090,0.0000,0.0000
231,08:30:05:750,0.9268,-0.0213,-0.0002,-0.00563,-0.02754,0.00005,0.0080,0.000000,0.000000,0.4767,-0.0056,-0.0187,0.8445,-0.021112,0.000000,0.000040,-0.001174,-0.008636,0.000023,0.000260,-0.001011,1525.7,2.94,2,12345.6010,-0.0037,0.1100,0.0000,0.0000
232,08:30:05:775,0.9486,-0.0178,0.0005,-0.00566,-0.02775,0.00005,0.0177,0.000000,0.000000,0.4677,-0.0271,0.0035,0.8562,-0.021406,0.000000,0.000041,-0.001168,-0.008662,0.000023,0.000260,-0.001007,1538.2,2.90,2,12345.6010,0.0038,0.1110,0.0000,0.0000
233,08:30:05:800,0.9736,-0.0187,-0.0003,-0.00569,-0.02797,0.00005,0.0176,0.000000,0.000000,0.4756,-0.0265,0.0076,0.8680,-0.021701,0.000000,0.000042,-0.001161,-0.008687,0.000024,0.000260,-0.001002,1552.3,3.09,2,12345.6010,0.0022,0.1120,0.0000,0.0000
234,08:30:05:825,0.9938,-0.0202,0.0005,-0.00571,-0.02819,0.00005,0.0223,0.000000,0.000000,0.4722,-0.0290,-0.0056,0.8799,-0.021998,0.000000,0.000042,-0.001155,-0.008712,0.000024,0.000260,-0.000998,1563.8,3.09,2,12345.6010,0.0016,0.1130,0.0000,0.0000
235,08:30:05:850,1.0143,-0.0210,0.0001,-0.00574,-0.02840,0.00005,0.0205,0.000000,0.000000,0.4947,-0.0218,0.0360,0.8918,-0.022296,0.000000,0.000043,-0.001148,-0.008737,0.000024,0.000260,-0.000994,1599.6,3.30,2,12345.6010,0.0021,0.1140,0.0000,0.0000
236,08:30:05:875,1.0363,-0.0208,-0.0010,-0.00577,-0.02862,0.00005,0.0202,0.000000,0.000000,0.4706,-0.0195,0.0193,0.9038,-0.022596,0.000000,0.000043,-0.001142,-0.008761,0.000024,0.000260,-0.000989,1599.2,3.25,2,12345.6011,0.0072,0.1150,0.0000,0.0000
237,08:30:05:900,1.0616,-0.0255,-0.0017,-0.00580,-0.02884,0.00005,0.0178,0.000000,0.000000,0.4856,-0.0200,-0.0343,0.9159,-0.022897,0.000000,0.000044,-0.001135,-0.008786,0.000024,0.000260,-0.000985,1609.6,3.39,2,12345.6011,0.0066,0.1160,0.0000,0.0000
238,08:30:05:925,1.0836,-0.0239,0.0006,-0.00583,-0.02906,0.00005,0.0301,0.000000,0.000000,0.4977,-0.0131,0.0046,0.9280,-0.023200,0.000000,0.000045,-0.001129,-0.008811,0.000024,0.000260,-0.000981,1621.8,3.30,2,12345.6011,-0.0021,0.1170,0.0000,0.0000
239,08:30:05:950,1.1040,-0.0268,0.0016,-0.00586,-0.02928,0.00006,0.0313,0.000000,0.000000,0.4850,-0.0174,-0.0137,0.9402,-0.023504,0.000000,0.000045,-0.001122,-0.008835,0.000025,0.000260,-0.000977,1610.9,3.28,2,12345.6011,0.0049,0.1180,0.0000,0.0000
240,08:30:05:975,1.1260,-0.0275,0.0025,-0.00588,-0.02950,0.00006,0.0285,0.000000,0.000000,0.4843,-0.0212,0.0143,0.9524,-0.023810,0.000000,0.000046,-0.001116,-0.008859,0.000025,0.000260,-0.000972,1619.5,3.34,2,12345.6012,0.0011,0.1190,0.0000,0.0000
241,08:30:06:000,1.1575,-0.0253,0.0009,-0.00591,-0.02973,0.00006,0.0202,0.000000,0.000000,0.4988,-0.0206,-0.0221,0.9647,-0.024117,0.000000,0.000046,-0.001109,-0.008884,0.000025,0.000260,-0.000968,1631.6,3.78,2,12345.6012,0.0015,0.1200,0.0000,0.0000
